[
  {
    "country": "France",
    "city": "Paris",
    "lat": 48.8534951,
    "lon": 2.3483915,
    "pois": [
      {
        "name": "Fondation Cartier pour l'art contemporain",
        "categories": [
          "entertainment",
          "entertainment.museum",
          "fee",
          "wheelchair",
          "wheelchair.yes"
        ],
        "lat": 48.83736825,
        "lon": 2.331912990682282
      },
      {
        "name": "Domaine national de Saint-Cloud",
        "categories": [
          "heritage",
          "leisure",
          "leisure.park",
          "tourism",
          "tourism.attraction"
        ],
        "lat": 48.833749600000004,
        "lon": 2.1964653653893036
      },
      {
        "name": "Sainte-Chapelle",
        "categories": [
          "building",
          "building.historic",
          "building.place_of_worship",
          "building.tourism",
          "entertainment",
          "entertainment.museum",
          "fee",
          "heritage",
          "religion",
          "religion.place_of_worship",
          "religion.place_of_worship.christianity",
          "tourism.sights.place_of_worship",
          "tourism.sights.place_of_worship.church",
          "wheelchair",
          "wheelchair.yes"
        ],
        "lat": 48.8553933,
        "lon": 2.34499406295433
      },
      {
        "name": "Musée des beaux-arts de la Ville de Paris",
        "categories": [
          "building",
          "building.historic",
          "building.tourism",
          "entertainment",
          "entertainment.museum",
          "heritage",
          "internet_access",
          "internet_access.free",
          "no_fee",
          "no_fee.no",
          "wheelchair",
          "wheelchair.yes"
        ],
        "lat": 48.866042,
        "lon": 2.3153496472839956
      },
      {
        "name": "Musée Carnavalet",
        "categories": [
          "access",
          "access.yes",
          "entertainment",
          "entertainment.museum",
          "internet_access",
          "internet_access.free",
          "no_fee",
          "no_fee.no",
          "wheelchair",
          "wheelchair.yes"
        ],
        "lat": 48.85732324999999,
        "lon": 2.3624733783107805
      },
      {
        "name": "Musée Bourdelle",
        "categories": [
          "building",
          "building.tourism",
          "entertainment",
          "entertainment.museum",
          "internet_access",
          "internet_access.free",
          "wheelchair",
          "wheelchair.yes"
        ],
        "lat": 48.843215,
        "lon": 2.318663236817872
      },
      {
        "name": "Palais Galliera",
        "categories": [
          "building",
          "building.tourism",
          "entertainment",
          "entertainment.museum",
          "fee",
          "wheelchair",
          "wheelchair.yes"
        ],
        "lat": 48.8657028,
        "lon": 2.2965064253978102
      },
      {
        "name": "Hôtel Plaza Athénée",
        "categories": [
          "accommodation",
          "accommodation.hotel",
          "building",
          "building.accommodation",
          "building.historic",
          "heritage",
          "internet_access"
        ],
        "lat": 48.866381450000006,
        "lon": 2.303892572915755
      },
      {
        "name": "Fondation Henri Cartier-Bresson",
        "categories": [
          "building",
          "building.tourism",
          "entertainment",
          "entertainment.museum",
          "wheelchair",
          "wheelchair.yes"
        ],
        "lat": 48.863219650000005,
        "lon": 2.3598871107292316
      },
      {
        "name": "Jardin des Plantes",
        "categories": [
          "heritage",
          "leisure",
          "leisure.park",
          "tourism",
          "tourism.attraction",
          "wheelchair",
          "wheelchair.limited"
        ],
        "lat": 48.844036,
        "lon": 2.3597320957178876
      },
      {
        "name": "Parc Saint-Jean-Paul II",
        "categories": [
          "leisure",
          "leisure.park"
        ],
        "lat": 48.823662150000004,
        "lon": 2.2797773141063162
      },
      {
        "name": "Jardin d'Acclimatation",
        "categories": [
          "entertainment",
          "entertainment.theme_park"
        ],
        "lat": 48.8780977,
        "lon": 2.264883448503067
      },
      {
        "name": "Musée du quai Branly - Jacques Chirac",
        "categories": [
          "entertainment",
          "entertainment.museum",
          "wheelchair",
          "wheelchair.yes"
        ],
        "lat": 48.8609943,
        "lon": 2.297969635195826
      },
      {
        "name": "Galerie de Minéralogie et de Géologie",
        "categories": [
          "building",
          "building.tourism",
          "entertainment",
          "entertainment.museum",
          "no_fee",
          "no_fee.no"
        ],
        "lat": 48.8418166,
        "lon": 2.3577811012125043
      },
      {
        "name": "Galeries de Paléontologie et d'Anatomie comparée",
        "categories": [
          "building",
          "building.tourism",
          "entertainment",
          "entertainment.museum",
          "fee",
          "wheelchair",
          "wheelchair.yes"
        ],
        "lat": 48.8431322,
        "lon": 2.3628449209845424
      },
      {
        "name": "Collège des Bernardins",
        "categories": [
          "building",
          "building.entertainment",
          "building.historic",
          "building.tourism",
          "entertainment",
          "entertainment.culture",
          "entertainment.culture.arts_centre",
          "tourism",
          "tourism.attraction",
          "tourism.sights"
        ],
        "lat": 48.84883415,
        "lon": 2.3519828978158808
      },
      {
        "name": "Musée National de Céramique",
        "categories": [
          "building",
          "building.tourism",
          "entertainment",
          "entertainment.museum"
        ],
        "lat": 48.82868175,
        "lon": 2.223050158499171
      },
      {
        "name": "Halle Saint-Pierre",
        "categories": [
          "building",
          "building.tourism",
          "entertainment",
          "entertainment.museum",
          "no_fee",
          "no_fee.no"
        ],
        "lat": 48.88489115,
        "lon": 2.3445286825501586
      },
      {
        "name": "La Recyclerie",
        "categories": [
          "building",
          "building.catering",
          "catering",
          "catering.restaurant",
          "internet_access",
          "vegan",
          "vegetarian",
          "wheelchair",
          "wheelchair.yes"
        ],
        "lat": 48.89762175,
        "lon": 2.3440597762162603
      },
      {
        "name": "Jeu de Paume",
        "categories": [
          "building",
          "building.tourism",
          "entertainment",
          "entertainment.museum",
          "fee",
          "internet_access",
          "internet_access.free",
          "wheelchair",
          "wheelchair.yes"
        ],
        "lat": 48.865815600000005,
        "lon": 2.324087761320741
      },
      {
        "name": "Musée de l'Orangerie",
        "categories": [
          "building",
          "building.tourism",
          "entertainment",
          "entertainment.museum",
          "fee",
          "internet_access",
          "wheelchair",
          "wheelchair.yes"
        ],
        "lat": 48.8637655,
        "lon": 2.322660207806927
      },
      {
        "name": "Centre Georges Pompidou",
        "categories": [
          "building",
          "building.entertainment",
          "building.tourism",
          "entertainment",
          "entertainment.culture",
          "entertainment.culture.arts_centre",
          "tourism",
          "tourism.attraction",
          "wheelchair",
          "wheelchair.yes"
        ],
        "lat": 48.860591799999995,
        "lon": 2.3524736024856843
      },
      {
        "name": "Grand Palais",
        "categories": [
          "building",
          "building.historic",
          "building.tourism",
          "entertainment",
          "entertainment.museum",
          "fee",
          "heritage",
          "wheelchair",
          "wheelchair.yes"
        ],
        "lat": 48.86616135,
        "lon": 2.3122229353846153
      },
      {
        "name": "Pavillon de l'Arsenal",
        "categories": [
          "building",
          "building.tourism",
          "entertainment",
          "entertainment.museum",
          "no_fee",
          "no_fee.no",
          "wheelchair",
          "wheelchair.limited"
        ],
        "lat": 48.850598,
        "lon": 2.3621838016520575
      },
      {
        "name": "Musée de Cluny",
        "categories": [
          "entertainment",
          "entertainment.museum",
          "fee"
        ],
        "lat": 48.85064945,
        "lon": 2.3435643010185183
      },
      {
        "name": "Musée national Picasso-Paris",
        "categories": [
          "entertainment",
          "entertainment.museum",
          "fee"
        ],
        "lat": 48.8598698,
        "lon": 2.3621151762679444
      },
      {
        "name": "Musée Cognacq-Jay",
        "categories": [
          "entertainment",
          "entertainment.museum",
          "fee"
        ],
        "lat": 48.85812085,
        "lon": 2.3616823888956446
      },
      {
        "name": "Musée d'Orsay",
        "categories": [
          "building",
          "building.historic",
          "building.tourism",
          "building.transportation",
          "entertainment",
          "entertainment.museum",
          "fee",
          "heritage",
          "wheelchair",
          "wheelchair.yes"
        ],
        "lat": 48.85991785,
        "lon": 2.3265849372230356
      },
      {
        "name": "Pavillon du Lac",
        "categories": [
          "building",
          "building.catering",
          "catering",
          "catering.restaurant",
          "wheelchair",
          "wheelchair.yes"
        ],
        "lat": 48.8807678,
        "lon": 2.380943873158756
      },
      {
        "name": "So Ouest",
        "categories": [
          "commercial",
          "commercial.shopping_mall",
          "wheelchair",
          "wheelchair.yes"
        ],
        "lat": 48.8923774,
        "lon": 2.29651807460305
      },
      {
        "name": "Immeuble Molitor",
        "categories": [
          "building",
          "building.historic",
          "building.tourism",
          "entertainment",
          "entertainment.museum",
          "fee",
          "heritage",
          "tourism",
          "tourism.sights"
        ],
        "lat": 48.843390150000005,
        "lon": 2.25128194339504
      },
      {
        "name": "Musée Nissim de Camondo",
        "categories": [
          "entertainment",
          "entertainment.museum",
          "no_fee",
          "no_fee.no"
        ],
        "lat": 48.87917145,
        "lon": 2.3123457291618754
      },
      {
        "name": "Musée Cernuschi",
        "categories": [
          "entertainment",
          "entertainment.museum",
          "internet_access",
          "internet_access.free",
          "no_fee",
          "no_fee.no",
          "wheelchair",
          "wheelchair.yes"
        ],
        "lat": 48.87943215,
        "lon": 2.3125643967925473
      },
      {
        "name": "Château d'Asnières",
        "categories": [
          "building",
          "building.historic",
          "building.tourism",
          "entertainment",
          "entertainment.museum",
          "heritage",
          "tourism",
          "tourism.sights",
          "tourism.sights.castle"
        ],
        "lat": 48.910521349999996,
        "lon": 2.2935362849192593
      },
      {
        "name": "Musée d'Histoire Urbaine et Sociale",
        "categories": [
          "building",
          "building.tourism",
          "building.transportation",
          "entertainment",
          "entertainment.museum",
          "fee"
        ],
        "lat": 48.868207600000005,
        "lon": 2.221619823857867
      },
      {
        "name": "Pavillon de Vendôme",
        "categories": [
          "building",
          "building.historic",
          "building.tourism",
          "entertainment",
          "entertainment.museum",
          "heritage"
        ],
        "lat": 48.904824399999995,
        "lon": 2.3039255091675095
      },
      {
        "name": "Italie Deux",
        "categories": [
          "building",
          "building.commercial",
          "commercial",
          "commercial.shopping_mall",
          "wheelchair",
          "wheelchair.yes"
        ],
        "lat": 48.8288016,
        "lon": 2.355392137671233
      },
      {
        "name": "Italie Deux",
        "categories": [
          "building",
          "building.commercial",
          "commercial",
          "commercial.shopping_mall",
          "wheelchair",
          "wheelchair.yes"
        ],
        "lat": 48.8302306,
        "lon": 2.355207538112252
      },
      {
        "name": "Musée d'Art Moderne de Paris",
        "categories": [
          "building",
          "building.tourism",
          "entertainment",
          "entertainment.museum",
          "fee",
          "internet_access",
          "internet_access.free"
        ],
        "lat": 48.8643133,
        "lon": 2.2978602225671843
      },
      {
        "name": "Palais de Tokyo",
        "categories": [
          "building",
          "building.tourism",
          "entertainment",
          "entertainment.museum"
        ],
        "lat": 48.8639905,
        "lon": 2.2965215131311423
      },
      {
        "name": "Musée de la Libération de Paris",
        "categories": [
          "building",
          "building.historic",
          "building.tourism",
          "entertainment",
          "entertainment.museum",
          "no_fee",
          "no_fee.no",
          "tourism",
          "tourism.sights"
        ],
        "lat": 48.83411115,
        "lon": 2.3317224185448824
      },
      {
        "name": "Musée Guimet",
        "categories": [
          "building",
          "building.historic",
          "building.tourism",
          "entertainment",
          "entertainment.museum",
          "heritage"
        ],
        "lat": 48.86537895,
        "lon": 2.2935932775390624
      },
      {
        "name": "Grande Galerie de l'Évolution",
        "categories": [
          "building",
          "building.tourism",
          "entertainment",
          "entertainment.museum",
          "fee",
          "wheelchair",
          "wheelchair.yes"
        ],
        "lat": 48.8421055,
        "lon": 2.356243821803625
      },
      {
        "name": "Avenir",
        "categories": [
          "building",
          "building.commercial",
          "commercial",
          "commercial.shopping_mall"
        ],
        "lat": 48.919716550000004,
        "lon": 2.422193319352077
      },
      {
        "name": "Musée de la Vie Romantique",
        "categories": [
          "entertainment",
          "entertainment.museum",
          "no_fee",
          "no_fee.no",
          "wheelchair",
          "wheelchair.limited"
        ],
        "lat": 48.8813455,
        "lon": 2.3335217087540743
      },
      {
        "name": "Maison de Balzac",
        "categories": [
          "entertainment",
          "entertainment.museum",
          "heritage",
          "internet_access",
          "internet_access.free",
          "no_fee",
          "no_fee.no"
        ],
        "lat": 48.85520045,
        "lon": 2.280887878271276
      },
      {
        "name": "Pavillon de l'Eau",
        "categories": [
          "building",
          "building.tourism",
          "entertainment",
          "entertainment.museum",
          "no_fee",
          "no_fee.no"
        ],
        "lat": 48.846347699999995,
        "lon": 2.2732064282775286
      },
      {
        "name": "Jardin du Luxembourg",
        "categories": [
          "leisure",
          "leisure.park",
          "tourism",
          "tourism.attraction",
          "wheelchair",
          "wheelchair.yes"
        ],
        "lat": 48.84672275,
        "lon": 2.336414752172717
      },
      {
        "name": "Exploradôme",
        "categories": [
          "building",
          "building.public_and_civil",
          "building.tourism",
          "entertainment",
          "entertainment.museum",
          "fee",
          "wheelchair",
          "wheelchair.yes"
        ],
        "lat": 48.7931769,
        "lon": 2.3931014109591286
      },
      {
        "name": "Westfield Rosny 2",
        "categories": [
          "building",
          "building.commercial",
          "commercial",
          "commercial.shopping_mall"
        ],
        "lat": 48.883245,
        "lon": 2.477807231236029
      },
      {
        "name": "Maison de la Culture du Japon",
        "categories": [
          "building",
          "building.tourism",
          "entertainment",
          "entertainment.museum",
          "wheelchair",
          "wheelchair.yes"
        ],
        "lat": 48.85473705,
        "lon": 2.289777754814347
      },
      {
        "name": "Musée Zadkine",
        "categories": [
          "entertainment",
          "entertainment.museum",
          "no_fee",
          "no_fee.no"
        ],
        "lat": 48.84280355,
        "lon": 2.333797080318844
      },
      {
        "name": "Centre commercial Okabé",
        "categories": [
          "building",
          "building.commercial",
          "commercial",
          "commercial.shopping_mall"
        ],
        "lat": 48.8117319,
        "lon": 2.362714014089166
      },
      {
        "name": "Musée de Montmartre",
        "categories": [
          "entertainment",
          "entertainment.museum",
          "fee",
          "wheelchair",
          "wheelchair.yes"
        ],
        "lat": 48.88804985,
        "lon": 2.340629738959537
      },
      {
        "name": "Le Millénaire",
        "categories": [
          "building",
          "building.commercial",
          "commercial",
          "commercial.shopping_mall"
        ],
        "lat": 48.902973,
        "lon": 2.3764774634095858
      },
      {
        "name": "Musée de la chasse et de la nature",
        "categories": [
          "entertainment",
          "entertainment.museum",
          "fee"
        ],
        "lat": 48.86125555,
        "lon": 2.358782698354484
      },
      {
        "name": "Crypte Archéologique du Parvis Notre-Dame",
        "categories": [
          "entertainment",
          "entertainment.museum",
          "no_access",
          "tourism",
          "tourism.sights",
          "tourism.sights.archaeological_site"
        ],
        "lat": 48.85360045,
        "lon": 2.3481491067452906
      },
      {
        "name": "Musée du Luxembourg",
        "categories": [
          "building",
          "building.tourism",
          "entertainment",
          "entertainment.museum",
          "fee",
          "wheelchair",
          "wheelchair.yes"
        ],
        "lat": 48.848570949999996,
        "lon": 2.3340107179084693
      },
      {
        "name": "Cathédrale Notre-Dame de Paris",
        "categories": [
          "building",
          "building.historic",
          "building.place_of_worship",
          "building.tourism",
          "heritage",
          "religion",
          "religion.place_of_worship",
          "religion.place_of_worship.christianity",
          "tourism",
          "tourism.attraction",
          "tourism.sights",
          "tourism.sights.place_of_worship",
          "tourism.sights.place_of_worship.cathedral",
          "tourism.sights.place_of_worship.church",
          "wheelchair",
          "wheelchair.limited"
        ],
        "lat": 48.85293705,
        "lon": 2.3500501225000026
      },
      {
        "name": "Le Café Marly",
        "categories": [
          "catering",
          "catering.cafe",
          "internet_access",
          "wheelchair",
          "wheelchair.yes"
        ],
        "lat": 48.8616428,
        "lon": 2.3359304
      },
      {
        "name": "Musée des Arts et Métiers",
        "categories": [
          "entertainment",
          "entertainment.museum",
          "fee",
          "wheelchair",
          "wheelchair.yes"
        ],
        "lat": 48.8660977,
        "lon": 2.3554138
      },
      {
        "name": "Café des Phares",
        "categories": [
          "catering",
          "catering.cafe",
          "internet_access",
          "wheelchair",
          "wheelchair.yes"
        ],
        "lat": 48.8536169,
        "lon": 2.368253
      },
      {
        "name": "La Tour d'Argent",
        "categories": [
          "catering",
          "catering.restaurant",
          "catering.restaurant.french"
        ],
        "lat": 48.84983,
        "lon": 2.3549148
      },
      {
        "name": "Brasserie Lipp",
        "categories": [
          "catering",
          "catering.restaurant",
          "heritage"
        ],
        "lat": 48.8537528,
        "lon": 2.3324105
      },
      {
        "name": "Polidor",
        "categories": [
          "catering",
          "catering.restaurant",
          "catering.restaurant.french",
          "wheelchair",
          "wheelchair.limited"
        ],
        "lat": 48.8498182,
        "lon": 2.3401339
      },
      {
        "name": "Musée Grévin",
        "categories": [
          "entertainment",
          "entertainment.museum",
          "fee",
          "heritage",
          "wheelchair",
          "wheelchair.yes"
        ],
        "lat": 48.8718365,
        "lon": 2.3420974
      },
      {
        "name": "Musée Edith Piaf",
        "categories": [
          "entertainment",
          "entertainment.museum",
          "fee"
        ],
        "lat": 48.8662368,
        "lon": 2.3817367
      },
      {
        "name": "Clown-Bar",
        "categories": [
          "catering",
          "catering.restaurant",
          "catering.restaurant.french",
          "heritage"
        ],
        "lat": 48.8636232,
        "lon": 2.3671745
      },
      {
        "name": "Espace Dali",
        "categories": [
          "entertainment",
          "entertainment.museum"
        ],
        "lat": 48.88648,
        "lon": 2.3399022
      },
      {
        "name": "Cité des Sciences et de l'Industrie",
        "categories": [
          "entertainment",
          "entertainment.museum",
          "fee",
          "internet_access",
          "internet_access.free",
          "wheelchair",
          "wheelchair.yes"
        ],
        "lat": 48.8957518,
        "lon": 2.3879761
      },
      {
        "name": "Maison de Victor Hugo",
        "categories": [
          "entertainment",
          "entertainment.museum",
          "internet_access",
          "internet_access.free",
          "no_fee",
          "no_fee.no"
        ],
        "lat": 48.854799,
        "lon": 2.3661358
      },
      {
        "name": "Fondation Louis Vuitton",
        "categories": [
          "building",
          "building.entertainment",
          "building.tourism",
          "entertainment",
          "entertainment.culture",
          "entertainment.culture.arts_centre",
          "entertainment.museum",
          "fee",
          "wheelchair",
          "wheelchair.yes"
        ],
        "lat": 48.876650049999995,
        "lon": 2.2633380958024594
      },
      {
        "name": "Maison Européenne de la Photographie",
        "categories": [
          "entertainment",
          "entertainment.culture",
          "entertainment.culture.arts_centre",
          "entertainment.museum",
          "fee",
          "wheelchair",
          "wheelchair.limited"
        ],
        "lat": 48.8551205,
        "lon": 2.3589562
      },
      {
        "name": "Musée national Eugène Delacroix",
        "categories": [
          "entertainment",
          "entertainment.museum",
          "heritage"
        ],
        "lat": 48.85464155,
        "lon": 2.335393670592886
      },
      {
        "name": "Westfield Forum des Halles",
        "categories": [
          "commercial",
          "commercial.shopping_mall",
          "internet_access",
          "internet_access.free",
          "wheelchair",
          "wheelchair.yes"
        ],
        "lat": 48.86187795,
        "lon": 2.3471384386899565
      },
      {
        "name": "Musée de la Poupée",
        "categories": [
          "entertainment",
          "entertainment.museum",
          "fee"
        ],
        "lat": 48.8616153,
        "lon": 2.3542965
      },
      {
        "name": "Grande Mosquée de Paris",
        "categories": [
          "religion",
          "religion.place_of_worship",
          "religion.place_of_worship.islam",
          "tourism",
          "tourism.attraction",
          "tourism.sights.place_of_worship",
          "wheelchair",
          "wheelchair.limited"
        ],
        "lat": 48.842069249999994,
        "lon": 2.35510339377676
      },
      {
        "name": "Boom Boom Villette",
        "categories": [
          "building",
          "building.commercial",
          "commercial",
          "commercial.shopping_mall",
          "wheelchair",
          "wheelchair.yes"
        ],
        "lat": 48.89628165,
        "lon": 2.3890524169316807
      },
      {
        "name": "Musée Rodin",
        "categories": [
          "entertainment",
          "entertainment.museum",
          "wheelchair",
          "wheelchair.yes"
        ],
        "lat": 48.85474735,
        "lon": 2.3158669998625365
      },
      {
        "name": "Catacombes de Paris",
        "categories": [
          "entertainment",
          "entertainment.museum",
          "fee"
        ],
        "lat": 48.8337437,
        "lon": 2.3322959
      },
      {
        "name": "Au Chien qui Fume",
        "categories": [
          "catering",
          "catering.restaurant",
          "catering.restaurant.french",
          "internet_access",
          "wheelchair",
          "wheelchair.limited"
        ],
        "lat": 48.8613541,
        "lon": 2.3448441
      },
      {
        "name": "Le Petit Bouillon Pharamond",
        "categories": [
          "catering",
          "catering.restaurant",
          "catering.restaurant.french",
          "tourism",
          "tourism.attraction",
          "wheelchair",
          "wheelchair.limited"
        ],
        "lat": 48.8630052,
        "lon": 2.3485011
      },
      {
        "name": "L'Escargot Montorgueil",
        "categories": [
          "catering",
          "catering.restaurant",
          "catering.restaurant.french",
          "heritage",
          "wheelchair",
          "wheelchair.yes"
        ],
        "lat": 48.8641678,
        "lon": 2.3467038
      },
      {
        "name": "La Coupole",
        "categories": [
          "catering",
          "catering.restaurant",
          "catering.restaurant.french",
          "wheelchair",
          "wheelchair.yes"
        ],
        "lat": 48.8422778,
        "lon": 2.3280902
      },
      {
        "name": "Brasserie Bofinger",
        "categories": [
          "catering",
          "catering.restaurant",
          "catering.restaurant.french",
          "heritage",
          "tourism",
          "tourism.attraction",
          "wheelchair",
          "wheelchair.yes"
        ],
        "lat": 48.8539095,
        "lon": 2.3680433
      },
      {
        "name": "Musée de la Poste",
        "categories": [
          "entertainment",
          "entertainment.museum",
          "wheelchair",
          "wheelchair.yes"
        ],
        "lat": 48.8414574,
        "lon": 2.3172246
      },
      {
        "name": "Galerie-musée Baccarat",
        "categories": [
          "entertainment",
          "entertainment.museum",
          "wheelchair",
          "wheelchair.yes"
        ],
        "lat": 48.8677629,
        "lon": 2.2935696
      },
      {
        "name": "Musée Albert Kahn",
        "categories": [
          "building",
          "building.tourism",
          "entertainment",
          "entertainment.museum",
          "fee",
          "wheelchair",
          "wheelchair.yes"
        ],
        "lat": 48.8413452,
        "lon": 2.2282740365070524
      },
      {
        "name": "Musée du chocolat",
        "categories": [
          "entertainment",
          "entertainment.museum",
          "fee",
          "wheelchair",
          "wheelchair.yes"
        ],
        "lat": 48.8705899,
        "lon": 2.3500828
      },
      {
        "name": "Cité de l'architecture et du patrimoine",
        "categories": [
          "entertainment",
          "entertainment.museum",
          "fee",
          "wheelchair",
          "wheelchair.limited"
        ],
        "lat": 48.8628901,
        "lon": 2.288981
      },
      {
        "name": "Musée de la Marine",
        "categories": [
          "entertainment",
          "entertainment.museum",
          "fee",
          "wheelchair",
          "wheelchair.yes"
        ],
        "lat": 48.8618163,
        "lon": 2.2873421
      },
      {
        "name": "Musée de la Franc-Maçonnerie",
        "categories": [
          "entertainment",
          "entertainment.museum",
          "fee",
          "wheelchair",
          "wheelchair.yes"
        ],
        "lat": 48.8749151,
        "lon": 2.3431481
      },
      {
        "name": "L'Opéra Restaurant",
        "categories": [
          "catering",
          "catering.restaurant",
          "catering.restaurant.french",
          "wheelchair",
          "wheelchair.yes"
        ],
        "lat": 48.8720949,
        "lon": 2.3323339
      },
      {
        "name": "Fondation Le Corbusier",
        "categories": [
          "entertainment",
          "entertainment.museum",
          "fee"
        ],
        "lat": 48.851907,
        "lon": 2.265225
      },
      {
        "name": "Musée Adam Mickiewicz",
        "categories": [
          "entertainment",
          "entertainment.museum",
          "no_fee",
          "no_fee.no"
        ],
        "lat": 48.8513494,
        "lon": 2.355588
      },
      {
        "name": "Musée de Minéralogie",
        "categories": [
          "entertainment",
          "entertainment.museum",
          "fee",
          "wheelchair",
          "wheelchair.limited"
        ],
        "lat": 48.8453935,
        "lon": 2.3394599
      },
      {
        "name": "Bibliothèque-Musée de l'Opéra",
        "categories": [
          "entertainment",
          "entertainment.museum",
          "fee",
          "wheelchair",
          "wheelchair.yes"
        ],
        "lat": 48.871882,
        "lon": 2.331212
      },
      {
        "name": "Le Grand Véfour",
        "categories": [
          "catering",
          "catering.restaurant",
          "catering.restaurant.french"
        ],
        "lat": 48.8661551,
        "lon": 2.3379157
      },
      {
        "name": "Le Dôme",
        "categories": [
          "catering",
          "catering.restaurant",
          "catering.restaurant.seafood"
        ],
        "lat": 48.8419574,
        "lon": 2.3290304
      },
      {
        "name": "Bouillon Racine",
        "categories": [
          "catering",
          "catering.restaurant",
          "catering.restaurant.french"
        ],
        "lat": 48.850156,
        "lon": 2.3420157
      },
      {
        "name": "Oculto",
        "categories": [
          "catering",
          "catering.bar",
          "wheelchair",
          "wheelchair.yes"
        ],
        "lat": 48.8601219,
        "lon": 2.3499738
      },
      {
        "name": "La Closerie des Lilas",
        "categories": [
          "catering",
          "catering.restaurant",
          "catering.restaurant.fish"
        ],
        "lat": 48.8401082,
        "lon": 2.3360508
      },
      {
        "name": "Le Procope",
        "categories": [
          "catering",
          "catering.restaurant",
          "catering.restaurant.french"
        ],
        "lat": 48.8530584,
        "lon": 2.3387505
      },
      {
        "name": "Le Cochon à l'Oreille",
        "categories": [
          "catering",
          "catering.restaurant",
          "catering.restaurant.french"
        ],
        "lat": 48.8644516,
        "lon": 2.3451744
      },
      {
        "name": "Art Ludique - Le Musée",
        "categories": [
          "entertainment",
          "entertainment.museum"
        ],
        "lat": 48.8405179,
        "lon": 2.3703276
      },
      {
        "name": "Musée Fragonard",
        "categories": [
          "entertainment",
          "entertainment.museum",
          "fee"
        ],
        "lat": 48.8127927,
        "lon": 2.4233716
      },
      {
        "name": "Le Saint-Sauveur",
        "categories": [
          "catering",
          "catering.bar",
          "wheelchair",
          "wheelchair.limited"
        ],
        "lat": 48.866505,
        "lon": 2.3851161
      },
      {
        "name": "Bercy Village",
        "categories": [
          "commercial",
          "commercial.shopping_mall",
          "wheelchair",
          "wheelchair.yes"
        ],
        "lat": 48.8330311,
        "lon": 2.3863995
      },
      {
        "name": "La Mère Catherine",
        "categories": [
          "catering",
          "catering.restaurant"
        ],
        "lat": 48.886752,
        "lon": 2.3408024
      },
      {
        "name": "Musée des Plans-Reliefs",
        "categories": [
          "entertainment",
          "entertainment.museum",
          "fee",
          "wheelchair",
          "wheelchair.yes"
        ],
        "lat": 48.8564589,
        "lon": 2.3132374
      },
      {
        "name": "Musée de l'Histoire Vivante",
        "categories": [
          "entertainment",
          "entertainment.museum"
        ],
        "lat": 48.8660128,
        "lon": 2.4718198
      },
      {
        "name": "Musée des Archives nationales",
        "categories": [
          "entertainment",
          "entertainment.museum",
          "no_fee",
          "no_fee.no"
        ],
        "lat": 48.8604503,
        "lon": 2.3578119
      },
      {
        "name": "Musée National de l'Histoire de l'Immigration",
        "categories": [
          "entertainment",
          "entertainment.museum",
          "fee"
        ],
        "lat": 48.8351424,
        "lon": 2.4093613
      },
      {
        "name": "Le Chateaubriand",
        "categories": [
          "catering",
          "catering.restaurant",
          "catering.restaurant.french"
        ],
        "lat": 48.8693116,
        "lon": 2.3713458
      },
      {
        "name": "Musée Rodin",
        "categories": [
          "entertainment",
          "entertainment.museum",
          "no_fee",
          "no_fee.no"
        ],
        "lat": 48.8146963,
        "lon": 2.2517826
      },
      {
        "name": "Le Select",
        "categories": [
          "catering",
          "catering.restaurant",
          "wheelchair",
          "wheelchair.yes"
        ],
        "lat": 48.8426185,
        "lon": 2.3283851
      },
      {
        "name": "Le Musée du Fumeur",
        "categories": [
          "commercial",
          "commercial.smoking",
          "entertainment",
          "entertainment.museum",
          "fee",
          "wheelchair",
          "wheelchair.limited"
        ],
        "lat": 48.8586455,
        "lon": 2.382222
      },
      {
        "name": "Musée Banksy",
        "categories": [
          "entertainment",
          "entertainment.museum",
          "fee"
        ],
        "lat": 48.8746285,
        "lon": 2.3417156
      },
      {
        "name": "Bouillon Chartier",
        "categories": [
          "catering",
          "catering.restaurant",
          "catering.restaurant.french",
          "vegetarian",
          "wheelchair",
          "wheelchair.yes"
        ],
        "lat": 48.8719356,
        "lon": 2.3430137
      },
      {
        "name": "Musée des égouts",
        "categories": [
          "entertainment",
          "entertainment.museum",
          "fee",
          "wheelchair",
          "wheelchair.yes"
        ],
        "lat": 48.8626334,
        "lon": 2.3025814
      },
      {
        "name": "Musée social",
        "categories": [
          "entertainment",
          "entertainment.museum"
        ],
        "lat": 48.8578438,
        "lon": 2.3217902
      },
      {
        "name": "Musée Curie",
        "categories": [
          "entertainment",
          "entertainment.museum",
          "no_fee",
          "no_fee.no"
        ],
        "lat": 48.8442383,
        "lon": 2.3447906
      },
      {
        "name": "Musée du Parfum Fragonard",
        "categories": [
          "entertainment",
          "entertainment.museum",
          "no_fee",
          "no_fee.no"
        ],
        "lat": 48.8715287,
        "lon": 2.330216
      },
      {
        "name": "Club 13",
        "categories": [
          "catering",
          "catering.restaurant"
        ],
        "lat": 48.8769544,
        "lon": 2.3031339
      },
      {
        "name": "Musée national Jean-Jacques Henner",
        "categories": [
          "entertainment",
          "entertainment.museum",
          "fee",
          "wheelchair",
          "wheelchair.yes"
        ],
        "lat": 48.8830349,
        "lon": 2.3076969
      },
      {
        "name": "Musée de la Légion d'Honneur et des Ordres de Chevalerie",
        "categories": [
          "entertainment",
          "entertainment.museum",
          "no_fee",
          "no_fee.no"
        ],
        "lat": 48.8602946,
        "lon": 2.3247235
      },
      {
        "name": "Musée du Louvre",
        "categories": [
          "entertainment",
          "entertainment.museum",
          "fee",
          "internet_access",
          "internet_access.free",
          "wheelchair",
          "wheelchair.yes"
        ],
        "lat": 48.8611473,
        "lon": 2.33802768704666
      },
      {
        "name": "Palais du Louvre",
        "categories": [
          "building",
          "building.historic",
          "building.tourism",
          "heritage",
          "tourism",
          "tourism.attraction",
          "tourism.sights",
          "tourism.sights.castle",
          "wheelchair",
          "wheelchair.yes"
        ],
        "lat": 48.86147245,
        "lon": 2.3368747442628885
      },
      {
        "name": "Tour Eiffel",
        "categories": [
          "building",
          "building.historic",
          "building.tourism",
          "fee",
          "heritage",
          "man_made",
          "man_made.tower",
          "tourism",
          "tourism.attraction",
          "tourism.sights",
          "tourism.sights.memorial",
          "tourism.sights.memorial.monument",
          "tourism.sights.tower"
        ],
        "lat": 48.8582599,
        "lon": 2.2945006358633115
      },
      {
        "name": "Tour Montparnasse",
        "categories": [
          "building",
          "building.tourism",
          "tourism",
          "tourism.attraction",
          "tourism.sights.tower",
          "wheelchair",
          "wheelchair.yes"
        ],
        "lat": 48.842109750000006,
        "lon": 2.321972123611115
      },
      {
        "name": "Panthéon",
        "categories": [
          "building",
          "building.public_and_civil",
          "building.tourism",
          "fee",
          "tourism",
          "tourism.attraction",
          "wheelchair",
          "wheelchair.limited"
        ],
        "lat": 48.84619085,
        "lon": 2.346078521905153
      },
      {
        "name": "Bourse du Commerce",
        "categories": [
          "building",
          "building.tourism",
          "entertainment",
          "entertainment.museum",
          "fee",
          "wheelchair",
          "wheelchair.yes"
        ],
        "lat": 48.8628174,
        "lon": 2.34283637341099
      },
      {
        "name": "Tour Saint-Jacques",
        "categories": [
          "access",
          "access.yes",
          "building",
          "building.historic",
          "building.public_and_civil",
          "building.tourism",
          "fee",
          "heritage",
          "heritage.unesco",
          "man_made",
          "man_made.tower",
          "tourism",
          "tourism.attraction",
          "tourism.sights",
          "tourism.sights.tower"
        ],
        "lat": 48.8580032,
        "lon": 2.3489217129013236
      },
      {
        "name": "Basilique du Sacré-Cœur",
        "categories": [
          "building",
          "building.place_of_worship",
          "building.tourism",
          "religion",
          "religion.place_of_worship",
          "religion.place_of_worship.christianity",
          "tourism",
          "tourism.attraction",
          "tourism.sights.place_of_worship",
          "tourism.sights.place_of_worship.church",
          "wheelchair",
          "wheelchair.limited"
        ],
        "lat": 48.88680575,
        "lon": 2.3430153448835087
      },
      {
        "name": "Jardin des Tuileries",
        "categories": [
          "access",
          "access.yes",
          "heritage",
          "leisure",
          "leisure.park",
          "wheelchair",
          "wheelchair.yes"
        ],
        "lat": 48.863566199999994,
        "lon": 2.326955235215837
      },
      {
        "name": "Arc de Triomphe",
        "categories": [
          "building",
          "building.historic",
          "building.tourism",
          "heritage",
          "tourism",
          "tourism.attraction",
          "tourism.sights",
          "tourism.sights.memorial",
          "tourism.sights.memorial.monument"
        ],
        "lat": 48.8737791,
        "lon": 2.295037226037673
      },
      {
        "name": "Columbus Café & Co",
        "categories": [
          "catering",
          "catering.cafe",
          "catering.cafe.coffee",
          "catering.cafe.coffee_shop",
          "vegetarian"
        ],
        "lat": 48.8463782,
        "lon": 2.3799128
      },
      {
        "name": "Casa Festa",
        "categories": [
          "catering",
          "catering.restaurant",
          "catering.restaurant.italian",
          "catering.restaurant.pizza"
        ],
        "lat": 48.8625897,
        "lon": 2.34081
      },
      {
        "name": "Aux Ours",
        "categories": [
          "catering",
          "catering.bar",
          "commercial",
          "commercial.food_and_drink",
          "commercial.food_and_drink.bakery",
          "wheelchair",
          "wheelchair.limited"
        ],
        "lat": 48.8675526,
        "lon": 2.3966014
      },
      {
        "name": "Bông Cafe",
        "categories": [
          "catering",
          "catering.cafe",
          "internet_access",
          "internet_access.free"
        ],
        "lat": 48.7785605,
        "lon": 2.2940111
      },
      {
        "name": "Dépôt Légal",
        "categories": [
          "catering",
          "catering.restaurant",
          "wheelchair",
          "wheelchair.yes"
        ],
        "lat": 48.840949,
        "lon": 2.3210860047858946
      },
      {
        "name": "Parc Clichy-Batignolles Martin Luther King",
        "categories": [
          "leisure",
          "leisure.park"
        ],
        "lat": 48.89125115,
        "lon": 2.313691736057227
      },
      {
        "name": "Parc départemental Georges-Valbon",
        "categories": [
          "leisure",
          "leisure.park"
        ],
        "lat": 48.947570150000004,
        "lon": 2.3989473810607276
      },
      {
        "name": "Parc départemental Jean-Moulin - Les Guilands",
        "categories": [
          "dogs",
          "dogs.yes",
          "leisure",
          "leisure.park"
        ],
        "lat": 48.861819749999995,
        "lon": 2.4283206035890936
      },
      {
        "name": "Square Charles Péguy",
        "categories": [
          "internet_access",
          "internet_access.free",
          "leisure",
          "leisure.park"
        ],
        "lat": 48.83915285,
        "lon": 2.4066183143581465
      },
      {
        "name": "Parc Montsouris",
        "categories": [
          "leisure",
          "leisure.park",
          "tourism",
          "tourism.attraction",
          "wheelchair",
          "wheelchair.yes"
        ],
        "lat": 48.8219907,
        "lon": 2.337792152329822
      },
      {
        "name": "Marché Saint-Germain",
        "categories": [
          "building",
          "building.commercial",
          "commercial",
          "commercial.shopping_mall"
        ],
        "lat": 48.85203185,
        "lon": 2.336478744931444
      },
      {
        "name": "Hôtel des Invalides",
        "categories": [
          "building",
          "building.historic",
          "building.tourism",
          "tourism",
          "tourism.attraction",
          "tourism.sights"
        ],
        "lat": 48.855953650000004,
        "lon": 2.3133430973100904
      },
      {
        "name": "Hôtel Méridien Etoile",
        "categories": [
          "accommodation",
          "accommodation.hotel",
          "building",
          "building.accommodation",
          "wheelchair",
          "wheelchair.yes"
        ],
        "lat": 48.879540250000005,
        "lon": 2.2853816492180723
      },
      {
        "name": "Hilton Paris Opera",
        "categories": [
          "accommodation",
          "accommodation.hotel",
          "building",
          "building.accommodation",
          "internet_access",
          "internet_access.free"
        ],
        "lat": 48.87572165,
        "lon": 2.3258962791827065
      }
    ]
  },
  {
    "country": "France",
    "city": "Marseille",
    "lat": 43.2961743,
    "lon": 5.3699525,
    "pois": [
      {
        "name": "Jardin de la Magalone",
        "categories": [
          "access",
          "access.yes",
          "leisure",
          "leisure.park"
        ],
        "lat": 43.26164565,
        "lon": 5.398598584021286
      },
      {
        "name": "ZAC Bonneveine",
        "categories": [
          "commercial",
          "commercial.shopping_mall"
        ],
        "lat": 43.24868945,
        "lon": 5.389695825809845
      },
      {
        "name": "Musée des Beaux-Arts",
        "categories": [
          "building",
          "building.tourism",
          "entertainment",
          "entertainment.museum",
          "no_fee",
          "no_fee.no"
        ],
        "lat": 43.304596450000005,
        "lon": 5.394039596087057
      },
      {
        "name": "Muséum d'Histoire Naturelle",
        "categories": [
          "building",
          "building.tourism",
          "entertainment",
          "entertainment.museum",
          "no_fee",
          "no_fee.no"
        ],
        "lat": 43.303785649999995,
        "lon": 5.394594639673371
      },
      {
        "name": "Musée Cantini",
        "categories": [
          "building",
          "building.historic",
          "building.tourism",
          "entertainment",
          "entertainment.museum",
          "tourism",
          "tourism.sights",
          "wheelchair",
          "wheelchair.yes"
        ],
        "lat": 43.292207399999995,
        "lon": 5.378208413712626
      },
      {
        "name": "Musée des Civilisations de l'Europe et de la Méditerranée",
        "categories": [
          "building",
          "building.tourism",
          "entertainment",
          "entertainment.museum",
          "fee",
          "wheelchair",
          "wheelchair.yes"
        ],
        "lat": 43.29672875,
        "lon": 5.361025473368164
      },
      {
        "name": "Musée d'histoire de Marseille",
        "categories": [
          "entertainment",
          "entertainment.museum"
        ],
        "lat": 43.2975573,
        "lon": 5.3756864
      },
      {
        "name": "Musée des Arts Africains, Océaniens, Amérindiens",
        "categories": [
          "entertainment",
          "entertainment.museum",
          "wheelchair",
          "wheelchair.yes"
        ],
        "lat": 43.301009,
        "lon": 5.3681139
      },
      {
        "name": "Musée d'Archéologie Méditerranéenne",
        "categories": [
          "entertainment",
          "entertainment.museum",
          "wheelchair",
          "wheelchair.yes"
        ],
        "lat": 43.3005836,
        "lon": 5.3682814
      },
      {
        "name": "Cathédrale de la Major",
        "categories": [
          "building",
          "building.historic",
          "building.place_of_worship",
          "building.tourism",
          "heritage",
          "religion",
          "religion.place_of_worship",
          "religion.place_of_worship.christianity",
          "tourism",
          "tourism.attraction",
          "tourism.sights",
          "tourism.sights.place_of_worship",
          "tourism.sights.place_of_worship.cathedral",
          "tourism.sights.place_of_worship.church"
        ],
        "lat": 43.2997902,
        "lon": 5.364938176185101
      },
      {
        "name": "Columbus Café & Co",
        "categories": [
          "catering",
          "catering.cafe",
          "catering.cafe.coffee",
          "catering.cafe.coffee_shop"
        ],
        "lat": 43.2949927,
        "lon": 5.4776311
      },
      {
        "name": "Baraka jeux",
        "categories": [
          "catering",
          "catering.bar",
          "wheelchair",
          "wheelchair.limited"
        ],
        "lat": 43.29492,
        "lon": 5.3830942
      },
      {
        "name": "Château d'If",
        "categories": [
          "building",
          "building.historic",
          "building.tourism",
          "heritage",
          "tourism",
          "tourism.attraction"
        ],
        "lat": 43.27985595,
        "lon": 5.3252840193832025
      },
      {
        "name": "Les Docks Village",
        "categories": [
          "building",
          "building.commercial",
          "building.historic",
          "building.office",
          "commercial",
          "commercial.shopping_mall",
          "tourism",
          "tourism.sights",
          "wheelchair",
          "wheelchair.yes"
        ],
        "lat": 43.30729155,
        "lon": 5.366491799734845
      },
      {
        "name": "Jardin des Vestiges",
        "categories": [
          "access",
          "access.yes",
          "heritage",
          "leisure",
          "leisure.park",
          "no_fee",
          "no_fee.no",
          "tourism",
          "tourism.sights",
          "tourism.sights.archaeological_site"
        ],
        "lat": 43.29762169999999,
        "lon": 5.3749032087230315
      },
      {
        "name": "Musée Grobet-Labadié",
        "categories": [
          "building",
          "building.historic",
          "building.tourism",
          "entertainment",
          "entertainment.museum",
          "fee",
          "heritage",
          "tourism",
          "tourism.sights"
        ],
        "lat": 43.30331955,
        "lon": 5.392977868575647
      },
      {
        "name": "Mémorial des déportations",
        "categories": [
          "building",
          "building.military",
          "building.tourism",
          "entertainment",
          "entertainment.museum",
          "no_fee",
          "no_fee.no",
          "wheelchair",
          "wheelchair.yes"
        ],
        "lat": 43.29555525,
        "lon": 5.3624854682621175
      },
      {
        "name": "B & B Hôtels",
        "categories": [
          "accommodation",
          "accommodation.hotel",
          "building",
          "building.accommodation",
          "internet_access",
          "wheelchair",
          "wheelchair.yes"
        ],
        "lat": 43.274654,
        "lon": 5.3933772894973
      },
      {
        "name": "Frac Sud - Cité de l'art contemporain",
        "categories": [
          "building",
          "building.tourism",
          "entertainment",
          "entertainment.museum",
          "fee",
          "wheelchair",
          "wheelchair.yes"
        ],
        "lat": 43.305277450000006,
        "lon": 5.367795803719991
      },
      {
        "name": "Musée des Docks romains",
        "categories": [
          "entertainment",
          "entertainment.museum",
          "heritage",
          "tourism",
          "tourism.sights",
          "tourism.sights.memorial",
          "tourism.sights.memorial.monument"
        ],
        "lat": 43.29682785,
        "lon": 5.368041457187139
      },
      {
        "name": "Italova",
        "categories": [
          "catering",
          "catering.restaurant",
          "catering.restaurant.italian"
        ],
        "lat": 43.2645529,
        "lon": 5.409200098230085
      },
      {
        "name": "Palais du Pharo",
        "categories": [
          "building",
          "building.historic",
          "building.tourism",
          "tourism",
          "tourism.attraction",
          "tourism.sights",
          "tourism.sights.castle",
          "wheelchair",
          "wheelchair.yes"
        ],
        "lat": 43.29424765,
        "lon": 5.358032066392101
      },
      {
        "name": "Centre commercial Les Terrasses du Port",
        "categories": [
          "building",
          "building.commercial",
          "commercial",
          "commercial.shopping_mall",
          "wheelchair",
          "wheelchair.yes"
        ],
        "lat": 43.306934999999996,
        "lon": 5.364485517701862
      },
      {
        "name": "Ashourya",
        "categories": [
          "catering",
          "catering.restaurant",
          "catering.restaurant.syrian",
          "halal",
          "vegan",
          "vegetarian"
        ],
        "lat": 43.2952729,
        "lon": 5.3824967
      },
      {
        "name": "Dubble",
        "categories": [
          "catering",
          "catering.restaurant",
          "internet_access",
          "internet_access.free",
          "wheelchair",
          "wheelchair.yes"
        ],
        "lat": 43.2757132,
        "lon": 5.3890752
      },
      {
        "name": "Le Petit Nice Passedat",
        "categories": [
          "accommodation",
          "accommodation.hotel",
          "gluten_free",
          "internet_access",
          "vegan",
          "vegetarian",
          "wheelchair",
          "wheelchair.yes"
        ],
        "lat": 43.2802191,
        "lon": 5.3520689
      },
      {
        "name": "La Caravelle",
        "categories": [
          "catering",
          "catering.restaurant",
          "catering.restaurant.fish",
          "catering.restaurant.regional"
        ],
        "lat": 43.2964951,
        "lon": 5.3720473
      },
      {
        "name": "Tabla",
        "categories": [
          "catering",
          "catering.restaurant",
          "vegan",
          "vegetarian"
        ],
        "lat": 43.2927708,
        "lon": 5.3834447
      },
      {
        "name": "Côté Cours",
        "categories": [
          "catering",
          "catering.restaurant"
        ],
        "lat": 43.2929413,
        "lon": 5.3839138
      },
      {
        "name": "Barbotyne",
        "categories": [
          "catering",
          "catering.cafe"
        ],
        "lat": 43.2981933,
        "lon": 5.3876894
      },
      {
        "name": "Au Bout du Quai",
        "categories": [
          "catering",
          "catering.restaurant",
          "catering.restaurant.french"
        ],
        "lat": 43.2955262,
        "lon": 5.36482
      },
      {
        "name": "La Bakery By Deïa",
        "categories": [
          "catering",
          "catering.cafe"
        ],
        "lat": 43.2939347,
        "lon": 5.3761278
      },
      {
        "name": "Entre Terre et Mer",
        "categories": [
          "catering",
          "catering.restaurant",
          "catering.restaurant.seafood",
          "internet_access"
        ],
        "lat": 43.2992565,
        "lon": 5.3687373
      },
      {
        "name": "Bières, Paul, Jacques",
        "categories": [
          "catering",
          "catering.bar"
        ],
        "lat": 43.298183,
        "lon": 5.3674522
      },
      {
        "name": "Dubble",
        "categories": [
          "catering",
          "catering.restaurant",
          "internet_access"
        ],
        "lat": 43.3044459,
        "lon": 5.3665895
      },
      {
        "name": "Le Mousse",
        "categories": [
          "catering",
          "catering.restaurant",
          "catering.restaurant.french"
        ],
        "lat": 43.2926964,
        "lon": 5.3725239
      },
      {
        "name": "Bistrot l'Horloge",
        "categories": [
          "catering",
          "catering.restaurant",
          "vegetarian",
          "wheelchair",
          "wheelchair.limited"
        ],
        "lat": 43.2927817,
        "lon": 5.3745337
      },
      {
        "name": "Matza",
        "categories": [
          "catering",
          "catering.restaurant"
        ],
        "lat": 43.2921099,
        "lon": 5.3842971
      },
      {
        "name": "Label'Ferme",
        "categories": [
          "catering",
          "catering.restaurant",
          "internet_access"
        ],
        "lat": 43.2498953,
        "lon": 5.3818132
      },
      {
        "name": "Ristorante Del Arte",
        "categories": [
          "catering",
          "catering.restaurant",
          "catering.restaurant.italian",
          "wheelchair",
          "wheelchair.yes"
        ],
        "lat": 43.2945732,
        "lon": 5.3748344
      },
      {
        "name": "Waroeng Bali",
        "categories": [
          "catering",
          "catering.restaurant",
          "catering.restaurant.indonesian"
        ],
        "lat": 43.2837108,
        "lon": 5.3837532
      },
      {
        "name": "Le Yen Seiiki",
        "categories": [
          "catering",
          "catering.restaurant",
          "catering.restaurant.japanese"
        ],
        "lat": 43.2830198,
        "lon": 5.3849187
      },
      {
        "name": "Pizza La Patronne",
        "categories": [
          "catering",
          "catering.restaurant",
          "catering.restaurant.italian",
          "vegetarian"
        ],
        "lat": 43.2877651,
        "lon": 5.3823376
      },
      {
        "name": "La Salle des Machines",
        "categories": [
          "catering",
          "catering.cafe"
        ],
        "lat": 43.3098258,
        "lon": 5.3906106
      },
      {
        "name": "l'Arôme",
        "categories": [
          "catering",
          "catering.restaurant"
        ],
        "lat": 43.2942657,
        "lon": 5.384722
      },
      {
        "name": "Le Palais d'Asie",
        "categories": [
          "catering",
          "catering.restaurant",
          "catering.restaurant.asian",
          "vegetarian"
        ],
        "lat": 43.257388,
        "lon": 5.3945271
      },
      {
        "name": "Chez Michel",
        "categories": [
          "catering",
          "catering.restaurant",
          "wheelchair",
          "wheelchair.yes"
        ],
        "lat": 43.2907009,
        "lon": 5.356069
      },
      {
        "name": "Manifesten",
        "categories": [
          "catering",
          "catering.cafe"
        ],
        "lat": 43.2968254,
        "lon": 5.3855235
      },
      {
        "name": "Une table au sud",
        "categories": [
          "catering",
          "catering.restaurant",
          "catering.restaurant.french",
          "catering.restaurant.mediterranean",
          "wheelchair",
          "wheelchair.yes"
        ],
        "lat": 43.2963677,
        "lon": 5.373659
      },
      {
        "name": "Taste",
        "categories": [
          "catering",
          "catering.restaurant",
          "catering.restaurant.french",
          "vegetarian"
        ],
        "lat": 43.3435353,
        "lon": 5.364586
      },
      {
        "name": "Hippopotamus Marseille la Valentine",
        "categories": [
          "catering",
          "catering.restaurant",
          "catering.restaurant.barbecue",
          "wheelchair",
          "wheelchair.yes"
        ],
        "lat": 43.2893233,
        "lon": 5.4806831
      },
      {
        "name": "L'Argentin Grill",
        "categories": [
          "catering",
          "catering.restaurant",
          "catering.restaurant.argentinian"
        ],
        "lat": 43.2858798,
        "lon": 5.3848251
      },
      {
        "name": "Le Sri Ganesh",
        "categories": [
          "catering",
          "catering.restaurant",
          "catering.restaurant.indian",
          "vegetarian"
        ],
        "lat": 43.2926692,
        "lon": 5.3721084
      },
      {
        "name": "Chez Ze",
        "categories": [
          "catering",
          "catering.restaurant",
          "catering.restaurant.pizza"
        ],
        "lat": 43.2246768,
        "lon": 5.4168244
      },
      {
        "name": "Le Levant",
        "categories": [
          "catering",
          "catering.restaurant",
          "catering.restaurant.french",
          "catering.restaurant.mediterranean"
        ],
        "lat": 43.3007314,
        "lon": 5.3821114
      },
      {
        "name": "Minoofi Bakery",
        "categories": [
          "catering",
          "catering.cafe"
        ],
        "lat": 43.2891012,
        "lon": 5.3785011
      },
      {
        "name": "Ashourya",
        "categories": [
          "catering",
          "catering.restaurant",
          "catering.restaurant.lebanese",
          "vegan",
          "vegetarian"
        ],
        "lat": 43.3015554,
        "lon": 5.387485
      },
      {
        "name": "Sumo Suhi Bar",
        "categories": [
          "catering",
          "catering.restaurant",
          "catering.restaurant.japanese"
        ],
        "lat": 43.3580131,
        "lon": 5.3380319
      },
      {
        "name": "Bien être et petits plats",
        "categories": [
          "catering",
          "catering.cafe",
          "vegan",
          "vegetarian"
        ],
        "lat": 43.2852603,
        "lon": 5.3819018
      },
      {
        "name": "Le Pulse",
        "categories": [
          "catering",
          "catering.bar"
        ],
        "lat": 43.2930821,
        "lon": 5.3831577
      },
      {
        "name": "Wadina",
        "categories": [
          "catering",
          "catering.restaurant",
          "catering.restaurant.lebanese",
          "vegetarian"
        ],
        "lat": 43.2862957,
        "lon": 5.377544
      },
      {
        "name": "Friterie Werner & Co",
        "categories": [
          "catering",
          "catering.restaurant",
          "catering.restaurant.belgian"
        ],
        "lat": 43.2969804,
        "lon": 5.3818079
      },
      {
        "name": "Asabiya",
        "categories": [
          "catering",
          "catering.bar"
        ],
        "lat": 43.2940672,
        "lon": 5.3830218
      },
      {
        "name": "Manneken-Pis",
        "categories": [
          "catering",
          "catering.bar"
        ],
        "lat": 43.2903944,
        "lon": 5.3689316
      },
      {
        "name": "La Brasserie Communale",
        "categories": [
          "catering",
          "catering.bar"
        ],
        "lat": 43.2937228,
        "lon": 5.3836565
      },
      {
        "name": "TA&Co",
        "categories": [
          "catering",
          "catering.restaurant",
          "wheelchair",
          "wheelchair.yes"
        ],
        "lat": 43.2889767,
        "lon": 5.395782
      },
      {
        "name": "Mame Diarra",
        "categories": [
          "catering",
          "catering.restaurant",
          "catering.restaurant.african"
        ],
        "lat": 43.2959142,
        "lon": 5.3810383
      },
      {
        "name": "l'Oleas",
        "categories": [
          "catering",
          "catering.restaurant",
          "catering.restaurant.mediterranean"
        ],
        "lat": 43.2947645,
        "lon": 5.3831738
      },
      {
        "name": "Massilia",
        "categories": [
          "accommodation",
          "accommodation.hotel"
        ],
        "lat": 43.3006848,
        "lon": 5.3801197
      },
      {
        "name": "Les Trésors du Liban",
        "categories": [
          "catering",
          "catering.restaurant",
          "catering.restaurant.lebanese"
        ],
        "lat": 43.2620951,
        "lon": 5.4040099
      },
      {
        "name": "La Daurade",
        "categories": [
          "catering",
          "catering.restaurant"
        ],
        "lat": 43.2934492,
        "lon": 5.3733846
      },
      {
        "name": "Ate Qu'enfim",
        "categories": [
          "catering",
          "catering.restaurant",
          "catering.restaurant.portuguese"
        ],
        "lat": 43.2866144,
        "lon": 5.3904181
      },
      {
        "name": "Café Populaire",
        "categories": [
          "catering",
          "catering.restaurant",
          "catering.restaurant.french",
          "catering.restaurant.regional"
        ],
        "lat": 43.2887918,
        "lon": 5.3786203
      },
      {
        "name": "Dubble",
        "categories": [
          "catering",
          "catering.restaurant",
          "vegetarian"
        ],
        "lat": 43.2793467,
        "lon": 5.4055462
      },
      {
        "name": "Le Ziguinchor",
        "categories": [
          "catering",
          "catering.restaurant",
          "catering.restaurant.african"
        ],
        "lat": 43.2936866,
        "lon": 5.3846454
      },
      {
        "name": "Pizza TiTi",
        "categories": [
          "catering",
          "catering.restaurant",
          "catering.restaurant.pizza",
          "vegetarian"
        ],
        "lat": 43.3601292,
        "lon": 5.3151332
      },
      {
        "name": "Petit Train de Marseille",
        "categories": [
          "tourism",
          "tourism.attraction"
        ],
        "lat": 43.2956458,
        "lon": 5.3664384
      },
      {
        "name": "La Maison des raviolis",
        "categories": [
          "catering",
          "catering.restaurant"
        ],
        "lat": 43.247515,
        "lon": 5.4005102
      },
      {
        "name": "La Maison des Raviolis - Italie",
        "categories": [
          "catering",
          "catering.restaurant",
          "catering.restaurant.chinese"
        ],
        "lat": 43.2902737,
        "lon": 5.3817502
      },
      {
        "name": "Le Cafouch aux Saveurs",
        "categories": [
          "catering",
          "catering.restaurant"
        ],
        "lat": 43.356434,
        "lon": 5.3351493
      },
      {
        "name": "Ourea",
        "categories": [
          "catering",
          "catering.restaurant",
          "catering.restaurant.french",
          "catering.restaurant.regional",
          "gluten_free",
          "vegan",
          "vegetarian"
        ],
        "lat": 43.2906135,
        "lon": 5.3734652
      },
      {
        "name": "Le Petit Dugo",
        "categories": [
          "catering",
          "catering.restaurant",
          "vegan",
          "vegetarian",
          "wheelchair",
          "wheelchair.limited"
        ],
        "lat": 43.2983665,
        "lon": 5.3812189
      },
      {
        "name": "Le Toigou",
        "categories": [
          "catering",
          "catering.restaurant",
          "catering.restaurant.thai"
        ],
        "lat": 43.2652456,
        "lon": 5.3904223
      },
      {
        "name": "Bernie",
        "categories": [
          "catering",
          "catering.restaurant",
          "internet_access",
          "internet_access.free",
          "vegan",
          "vegetarian",
          "wheelchair",
          "wheelchair.yes"
        ],
        "lat": 43.2914319,
        "lon": 5.3809959
      },
      {
        "name": "L'Alveola, Pizza al taglio",
        "categories": [
          "catering",
          "catering.restaurant",
          "catering.restaurant.pizza"
        ],
        "lat": 43.2440569,
        "lon": 5.371432
      },
      {
        "name": "Marafiki",
        "categories": [
          "catering",
          "catering.restaurant",
          "catering.restaurant.african"
        ],
        "lat": 43.2985367,
        "lon": 5.3677017
      },
      {
        "name": "Le Comptoir aux Huiles by Delucce",
        "categories": [
          "catering",
          "catering.restaurant",
          "catering.restaurant.mediterranean"
        ],
        "lat": 43.298838,
        "lon": 5.366557
      },
      {
        "name": "Otto Marseille",
        "categories": [
          "catering",
          "catering.restaurant"
        ],
        "lat": 43.2717951,
        "lon": 5.3867386
      },
      {
        "name": "Le Blum",
        "categories": [
          "catering",
          "catering.restaurant"
        ],
        "lat": 43.2987898,
        "lon": 5.3835162
      },
      {
        "name": "Un jardin en ville",
        "categories": [
          "catering",
          "catering.restaurant",
          "catering.restaurant.italian"
        ],
        "lat": 43.2692375,
        "lon": 5.3879442
      },
      {
        "name": "Elyssa",
        "categories": [
          "catering",
          "catering.restaurant"
        ],
        "lat": 43.2927339,
        "lon": 5.3689063
      },
      {
        "name": "My Little Warung",
        "categories": [
          "catering",
          "catering.restaurant",
          "catering.restaurant.asian",
          "halal",
          "vegetarian"
        ],
        "lat": 43.2690634,
        "lon": 5.4036717
      },
      {
        "name": "Le Daily",
        "categories": [
          "catering",
          "catering.restaurant"
        ],
        "lat": 43.2562736,
        "lon": 5.3822836
      },
      {
        "name": "Meininger Hotel",
        "categories": [
          "accommodation",
          "accommodation.hotel",
          "internet_access"
        ],
        "lat": 43.3056563,
        "lon": 5.3710775
      },
      {
        "name": "Gilberte et Marguerite",
        "categories": [
          "catering",
          "catering.restaurant"
        ],
        "lat": 43.3039658,
        "lon": 5.3676494
      },
      {
        "name": "Kyo",
        "categories": [
          "catering",
          "catering.restaurant",
          "catering.restaurant.japanese"
        ],
        "lat": 43.2846643,
        "lon": 5.3848871
      },
      {
        "name": "Grotte Cosquer",
        "categories": [
          "entertainment",
          "entertainment.museum",
          "fee"
        ],
        "lat": 43.2972614,
        "lon": 5.3619941
      },
      {
        "name": "Figure",
        "categories": [
          "catering",
          "catering.restaurant"
        ],
        "lat": 43.2831517,
        "lon": 5.3745631
      },
      {
        "name": "Les Jardins du Cloître de Marseille",
        "categories": [
          "catering",
          "catering.restaurant"
        ],
        "lat": 43.335579,
        "lon": 5.4233903
      },
      {
        "name": "Restaurant Quartier Libre",
        "categories": [
          "catering",
          "catering.restaurant",
          "catering.restaurant.french"
        ],
        "lat": 43.2935635,
        "lon": 5.3751695
      },
      {
        "name": "PULP - the place to beer",
        "categories": [
          "catering",
          "catering.bar"
        ],
        "lat": 43.2924569,
        "lon": 5.3718074
      },
      {
        "name": "La Serenata",
        "categories": [
          "catering",
          "catering.restaurant",
          "catering.restaurant.pizza"
        ],
        "lat": 43.2476859,
        "lon": 5.3747244
      },
      {
        "name": "C'est bon",
        "categories": [
          "catering",
          "catering.restaurant",
          "catering.restaurant.greek",
          "vegan",
          "vegetarian"
        ],
        "lat": 43.3020259,
        "lon": 5.3978265
      },
      {
        "name": "Robato",
        "categories": [
          "catering",
          "catering.restaurant"
        ],
        "lat": 43.2992134,
        "lon": 5.3844017
      },
      {
        "name": "Latté",
        "categories": [
          "catering",
          "catering.restaurant"
        ],
        "lat": 43.2981824,
        "lon": 5.3659923
      },
      {
        "name": "La ciergerie",
        "categories": [
          "catering",
          "catering.restaurant"
        ],
        "lat": 43.2913014,
        "lon": 5.3850553
      },
      {
        "name": "La nena",
        "categories": [
          "catering",
          "catering.restaurant"
        ],
        "lat": 43.2921397,
        "lon": 5.3834983
      },
      {
        "name": "Oyat",
        "categories": [
          "catering",
          "catering.restaurant"
        ],
        "lat": 43.2927854,
        "lon": 5.3803116
      },
      {
        "name": "Sushi Room",
        "categories": [
          "catering",
          "catering.restaurant",
          "halal"
        ],
        "lat": 43.2947502,
        "lon": 5.3766805
      },
      {
        "name": "Trattoria del Sud da Vicenzo",
        "categories": [
          "catering",
          "catering.restaurant",
          "catering.restaurant.italian"
        ],
        "lat": 43.2571758,
        "lon": 5.3941103
      },
      {
        "name": "Nul Part Ailleurs",
        "categories": [
          "catering",
          "catering.restaurant"
        ],
        "lat": 43.292968,
        "lon": 5.3704041
      },
      {
        "name": "Nina Sushi",
        "categories": [
          "catering",
          "catering.restaurant",
          "catering.restaurant.sushi"
        ],
        "lat": 43.2784321,
        "lon": 5.3893727
      },
      {
        "name": "La Pépite",
        "categories": [
          "catering",
          "catering.cafe",
          "commercial",
          "commercial.food_and_drink",
          "commercial.food_and_drink.confectionery"
        ],
        "lat": 43.2908854,
        "lon": 5.3671807
      },
      {
        "name": "La Pépite",
        "categories": [
          "catering",
          "catering.cafe",
          "commercial",
          "commercial.food_and_drink",
          "commercial.food_and_drink.confectionery",
          "gluten_free",
          "vegan",
          "vegetarian"
        ],
        "lat": 43.2978553,
        "lon": 5.3694947
      },
      {
        "name": "Basilic & Co Marseille (République)",
        "categories": [
          "catering",
          "catering.restaurant",
          "catering.restaurant.pizza",
          "vegetarian",
          "wheelchair",
          "wheelchair.yes"
        ],
        "lat": 43.303186,
        "lon": 5.3683022
      },
      {
        "name": "Jour Euromed",
        "categories": [
          "catering",
          "catering.restaurant"
        ],
        "lat": 43.3106339,
        "lon": 5.3679773
      },
      {
        "name": "Jour Les Docks",
        "categories": [
          "catering",
          "catering.restaurant"
        ],
        "lat": 43.3059765,
        "lon": 5.3662908
      },
      {
        "name": "Pho Vietnam",
        "categories": [
          "catering",
          "catering.restaurant",
          "catering.restaurant.vietnamese"
        ],
        "lat": 43.3025405,
        "lon": 5.3954553
      },
      {
        "name": "Pizza Sainte Anne",
        "categories": [
          "catering",
          "catering.restaurant",
          "catering.restaurant.pizza"
        ],
        "lat": 43.2564323,
        "lon": 5.393826
      },
      {
        "name": "Zia Concetta",
        "categories": [
          "catering",
          "catering.cafe"
        ],
        "lat": 43.2755863,
        "lon": 5.3598408
      },
      {
        "name": "Yafel",
        "categories": [
          "catering",
          "catering.restaurant",
          "vegan",
          "vegetarian",
          "wheelchair",
          "wheelchair.limited"
        ],
        "lat": 43.2922114,
        "lon": 5.3829467
      },
      {
        "name": "Pizze & Sfizi",
        "categories": [
          "catering",
          "catering.restaurant",
          "catering.restaurant.italian"
        ],
        "lat": 43.290637,
        "lon": 5.366574
      },
      {
        "name": "Chez Tamar",
        "categories": [
          "catering",
          "catering.restaurant"
        ],
        "lat": 43.2996161,
        "lon": 5.3664873
      },
      {
        "name": "La cantine solaire du Présage",
        "categories": [
          "catering",
          "catering.restaurant",
          "vegetarian"
        ],
        "lat": 43.3120158,
        "lon": 5.3971016
      },
      {
        "name": "TETRO",
        "categories": [
          "catering",
          "catering.restaurant"
        ],
        "lat": 43.2979277,
        "lon": 5.3713722
      },
      {
        "name": "Parc national des Calanques (cœur)",
        "categories": [
          "leisure",
          "leisure.park",
          "leisure.park.nature_reserve",
          "national_park",
          "natural",
          "natural.protected_area"
        ],
        "lat": 43.1522205,
        "lon": 5.42913037763134
      },
      {
        "name": "nhow Marseille Palm Beach",
        "categories": [
          "accommodation",
          "accommodation.hotel",
          "building",
          "building.accommodation",
          "internet_access",
          "internet_access.for_customers",
          "wheelchair",
          "wheelchair.yes"
        ],
        "lat": 43.268564,
        "lon": 5.369647160126583
      },
      {
        "name": "Parc de l'Oasis",
        "categories": [
          "access",
          "access.yes",
          "dogs",
          "dogs.leashed",
          "leisure",
          "leisure.park"
        ],
        "lat": 43.35136315,
        "lon": 5.372279530194858
      },
      {
        "name": "Restaurant Universitaire Canebière",
        "categories": [
          "building",
          "building.catering",
          "catering",
          "catering.restaurant"
        ],
        "lat": 43.29795045,
        "lon": 5.383577313777483
      },
      {
        "name": "Le Ryad",
        "categories": [
          "accommodation",
          "accommodation.hotel",
          "building",
          "building.accommodation"
        ],
        "lat": 43.2976296,
        "lon": 5.383458624449315
      },
      {
        "name": "ResidHotel - Vieux port",
        "categories": [
          "accommodation",
          "accommodation.hotel",
          "building",
          "building.accommodation",
          "internet_access",
          "internet_access.free"
        ],
        "lat": 43.296867649999996,
        "lon": 5.372814640769938
      },
      {
        "name": "Musée Regards de Provence",
        "categories": [
          "building",
          "building.tourism",
          "entertainment",
          "entertainment.museum",
          "fee",
          "wheelchair",
          "wheelchair.yes"
        ],
        "lat": 43.297745199999994,
        "lon": 5.363570257700396
      },
      {
        "name": "Manufactory",
        "categories": [
          "building",
          "building.catering",
          "building.commercial",
          "catering",
          "catering.cafe",
          "internet_access",
          "internet_access.free"
        ],
        "lat": 43.29694405,
        "lon": 5.369182672322898
      },
      {
        "name": "Grand Hotel De La Prefecture",
        "categories": [
          "accommodation",
          "accommodation.hotel",
          "building",
          "building.accommodation",
          "internet_access",
          "internet_access.free"
        ],
        "lat": 43.29131985,
        "lon": 5.381763994475339
      },
      {
        "name": "Centre commercial Carrefour Merlan",
        "categories": [
          "building",
          "building.commercial",
          "commercial",
          "commercial.shopping_mall"
        ],
        "lat": 43.3300259,
        "lon": 5.39915502401627
      },
      {
        "name": "Radisson Blu Marseille Vieux Port",
        "categories": [
          "accommodation",
          "accommodation.hotel",
          "building",
          "building.accommodation",
          "internet_access",
          "internet_access.free"
        ],
        "lat": 43.292291649999996,
        "lon": 5.367125570941943
      },
      {
        "name": "Le Culti",
        "categories": [
          "building",
          "building.catering",
          "catering",
          "catering.restaurant"
        ],
        "lat": 43.280718300000004,
        "lon": 5.368805873073636
      },
      {
        "name": "Le 143",
        "categories": [
          "building",
          "building.catering",
          "catering",
          "catering.bar"
        ],
        "lat": 43.29072235,
        "lon": 5.367227922372365
      },
      {
        "name": "Bar Restaurant de La Grotte",
        "categories": [
          "building",
          "building.catering",
          "catering",
          "catering.restaurant",
          "catering.restaurant.french"
        ],
        "lat": 43.21282815,
        "lon": 5.354174748802896
      },
      {
        "name": "La Baie des Singes",
        "categories": [
          "building",
          "building.catering",
          "catering",
          "catering.restaurant",
          "catering.restaurant.french"
        ],
        "lat": 43.21398695,
        "lon": 5.338040337080367
      },
      {
        "name": "La Riviera",
        "categories": [
          "building",
          "building.catering",
          "catering",
          "catering.restaurant"
        ],
        "lat": 43.244448899999995,
        "lon": 5.369601847193213
      },
      {
        "name": "Musée d'art contemporain de Marseille",
        "categories": [
          "building",
          "building.tourism",
          "entertainment",
          "entertainment.museum"
        ],
        "lat": 43.2504507,
        "lon": 5.390176549090016
      },
      {
        "name": "AM (Alexandre Mazzia)",
        "categories": [
          "building",
          "building.catering",
          "catering",
          "catering.restaurant",
          "catering.restaurant.european",
          "gluten_free",
          "vegan",
          "vegetarian",
          "wheelchair",
          "wheelchair.yes"
        ],
        "lat": 43.270044,
        "lon": 5.386260414893617
      },
      {
        "name": "LeCesar",
        "categories": [
          "accommodation",
          "accommodation.hotel",
          "building",
          "building.accommodation",
          "internet_access",
          "internet_access.free"
        ],
        "lat": 43.3424262,
        "lon": 5.464757795322194
      },
      {
        "name": "Vieux-Port",
        "categories": [
          "tourism",
          "tourism.attraction",
          "wheelchair",
          "wheelchair.yes"
        ],
        "lat": 43.2945804,
        "lon": 5.3692811
      },
      {
        "name": "Mama Shelter",
        "categories": [
          "accommodation",
          "accommodation.hotel",
          "building",
          "building.accommodation"
        ],
        "lat": 43.2904536,
        "lon": 5.388863737306332
      },
      {
        "name": "La calanque blanche",
        "categories": [
          "building",
          "building.catering",
          "catering",
          "catering.restaurant"
        ],
        "lat": 43.2231525,
        "lon": 5.346631486486483
      },
      {
        "name": "Black Stone",
        "categories": [
          "catering",
          "catering.bar"
        ],
        "lat": 43.2654663,
        "lon": 5.398663866822977
      },
      {
        "name": "InterContinental Marseille – Hotel Dieu",
        "categories": [
          "accommodation",
          "accommodation.hotel"
        ],
        "lat": 43.2985858,
        "lon": 5.369814771039273
      },
      {
        "name": "L'Escapade",
        "categories": [
          "catering",
          "catering.restaurant"
        ],
        "lat": 43.34575125,
        "lon": 5.435041613192492
      }
    ]
  },
  {
    "country": "France",
    "city": "Lyon",
    "lat": 45.7578137,
    "lon": 4.8320114,
    "pois": [
      {
        "name": "Parc de la Mairie",
        "categories": [
          "leisure",
          "leisure.park"
        ],
        "lat": 45.75735645,
        "lon": 4.801598394611789
      },
      {
        "name": "Square Monseigneur Alfred Ancel",
        "categories": [
          "leisure",
          "leisure.park",
          "no_dogs"
        ],
        "lat": 45.7294246,
        "lon": 4.8316765903832195
      },
      {
        "name": "Centre d'Histoire de la Résistance et de la Déportation",
        "categories": [
          "entertainment",
          "entertainment.museum",
          "fee",
          "wheelchair",
          "wheelchair.yes"
        ],
        "lat": 45.7464306,
        "lon": 4.8359519
      },
      {
        "name": "Musée urbain Tony Garnier",
        "categories": [
          "entertainment",
          "entertainment.museum",
          "fee"
        ],
        "lat": 45.7335086,
        "lon": 4.8629827
      },
      {
        "name": "Musée de l'Imprimerie et de la communication graphique",
        "categories": [
          "building",
          "building.historic",
          "building.tourism",
          "entertainment",
          "entertainment.museum",
          "fee",
          "heritage",
          "tourism",
          "tourism.sights"
        ],
        "lat": 45.76427995,
        "lon": 4.8347027871875
      },
      {
        "name": "Musée d'Art Contemporain",
        "categories": [
          "building",
          "building.tourism",
          "entertainment",
          "entertainment.museum",
          "fee",
          "wheelchair",
          "wheelchair.yes"
        ],
        "lat": 45.7842186,
        "lon": 4.852469829690217
      },
      {
        "name": "Westfield La Part-Dieu",
        "categories": [
          "building",
          "building.commercial",
          "commercial",
          "commercial.shopping_mall",
          "internet_access",
          "wheelchair",
          "wheelchair.yes"
        ],
        "lat": 45.761328250000005,
        "lon": 4.855903438949914
      },
      {
        "name": "Lugdunum Musée et Théâtres Romains",
        "categories": [
          "entertainment",
          "entertainment.museum",
          "fee",
          "wheelchair",
          "wheelchair.yes"
        ],
        "lat": 45.760301,
        "lon": 4.820729447863249
      },
      {
        "name": "Jardin d’Inkermann",
        "categories": [
          "leisure",
          "leisure.park",
          "no_dogs"
        ],
        "lat": 45.7640355,
        "lon": 4.86603659208013
      },
      {
        "name": "Square du Béguin",
        "categories": [
          "leisure",
          "leisure.park",
          "no_dogs"
        ],
        "lat": 45.7482316,
        "lon": 4.8500883477477466
      },
      {
        "name": "Comptoir Chabert et Fils",
        "categories": [
          "catering",
          "catering.restaurant",
          "catering.restaurant.regional",
          "wheelchair",
          "wheelchair.limited"
        ],
        "lat": 45.7567673,
        "lon": 4.8347036
      },
      {
        "name": "Musée des Confluences",
        "categories": [
          "entertainment",
          "entertainment.museum",
          "fee",
          "wheelchair",
          "wheelchair.yes"
        ],
        "lat": 45.732677800000005,
        "lon": 4.818160692638674
      },
      {
        "name": "Le Pailleron",
        "categories": [
          "catering",
          "catering.restaurant",
          "catering.restaurant.french"
        ],
        "lat": 45.7795345,
        "lon": 4.8333238
      },
      {
        "name": "Le Bistrot d'Odette",
        "categories": [
          "catering",
          "catering.cafe",
          "wheelchair",
          "wheelchair.yes"
        ],
        "lat": 45.7595795,
        "lon": 4.846013
      },
      {
        "name": "Musée des Beaux-Arts de Lyon",
        "categories": [
          "entertainment",
          "entertainment.museum",
          "fee"
        ],
        "lat": 45.766704700000005,
        "lon": 4.833645109701492
      },
      {
        "name": "La Mère Brazier",
        "categories": [
          "catering",
          "catering.restaurant",
          "catering.restaurant.regional"
        ],
        "lat": 45.771386,
        "lon": 4.8371707
      },
      {
        "name": "Musées Gadagne",
        "categories": [
          "entertainment",
          "entertainment.museum",
          "fee",
          "heritage",
          "tourism",
          "tourism.sights",
          "wheelchair",
          "wheelchair.yes"
        ],
        "lat": 45.76405015,
        "lon": 4.827286083631041
      },
      {
        "name": "Brasserie Georges",
        "categories": [
          "catering",
          "catering.restaurant",
          "catering.restaurant.regional",
          "production",
          "production.brewery",
          "vegetarian",
          "wheelchair",
          "wheelchair.yes"
        ],
        "lat": 45.7483221,
        "lon": 4.8283428
      },
      {
        "name": "Musée Cinéma & Miniature",
        "categories": [
          "entertainment",
          "entertainment.museum",
          "fee"
        ],
        "lat": 45.7618753,
        "lon": 4.8272985
      },
      {
        "name": "Musée de l'automobile Henri Malartre",
        "categories": [
          "entertainment",
          "entertainment.museum",
          "fee",
          "wheelchair",
          "wheelchair.limited"
        ],
        "lat": 45.8449493,
        "lon": 4.8371587
      },
      {
        "name": "Bistrot Jutard",
        "categories": [
          "catering",
          "catering.restaurant",
          "vegetarian",
          "wheelchair",
          "wheelchair.yes"
        ],
        "lat": 45.7745863,
        "lon": 4.8308752
      },
      {
        "name": "Brasserie L'Est - Bocuse",
        "categories": [
          "catering",
          "catering.restaurant",
          "catering.restaurant.french",
          "wheelchair",
          "wheelchair.yes"
        ],
        "lat": 45.7676679,
        "lon": 4.8597286
      },
      {
        "name": "Takao Takano",
        "categories": [
          "catering",
          "catering.restaurant",
          "catering.restaurant.french"
        ],
        "lat": 45.7704766,
        "lon": 4.8426638
      },
      {
        "name": "Miraflores",
        "categories": [
          "catering",
          "catering.restaurant",
          "catering.restaurant.peruvian"
        ],
        "lat": 45.7682904,
        "lon": 4.858602
      },
      {
        "name": "Kotopo",
        "categories": [
          "catering",
          "catering.cafe",
          "internet_access",
          "internet_access.free"
        ],
        "lat": 45.7697266,
        "lon": 4.833306
      },
      {
        "name": "Ninkasi Vaise Industrie",
        "categories": [
          "catering",
          "catering.bar",
          "vegetarian"
        ],
        "lat": 45.7882685,
        "lon": 4.8127363
      },
      {
        "name": "Le City",
        "categories": [
          "catering",
          "catering.bar"
        ],
        "lat": 45.7632762,
        "lon": 4.8520533
      },
      {
        "name": "La Voie Himalaya",
        "categories": [
          "catering",
          "catering.restaurant",
          "wheelchair",
          "wheelchair.yes"
        ],
        "lat": 45.7592913,
        "lon": 4.8519313
      },
      {
        "name": "Daniel et Denise Créqui",
        "categories": [
          "catering",
          "catering.restaurant",
          "catering.restaurant.french",
          "catering.restaurant.regional"
        ],
        "lat": 45.7622318,
        "lon": 4.8471989
      },
      {
        "name": "Frite Alors!",
        "categories": [
          "catering",
          "catering.restaurant",
          "vegetarian",
          "wheelchair",
          "wheelchair.limited"
        ],
        "lat": 45.7679129,
        "lon": 4.8319293
      },
      {
        "name": "Mini World Lyon",
        "categories": [
          "tourism",
          "tourism.attraction"
        ],
        "lat": 45.7647877,
        "lon": 4.9232356
      },
      {
        "name": "Balthaz'art",
        "categories": [
          "catering",
          "catering.restaurant",
          "catering.restaurant.french",
          "wheelchair",
          "wheelchair.limited"
        ],
        "lat": 45.7732862,
        "lon": 4.8321901
      },
      {
        "name": "Café des Fédérations",
        "categories": [
          "catering",
          "catering.restaurant",
          "catering.restaurant.french"
        ],
        "lat": 45.766536,
        "lon": 4.832427
      },
      {
        "name": "Institut Lumière",
        "categories": [
          "entertainment",
          "entertainment.museum",
          "fee",
          "wheelchair",
          "wheelchair.limited"
        ],
        "lat": 45.7450881,
        "lon": 4.8706151
      },
      {
        "name": "Maison des Canuts",
        "categories": [
          "entertainment",
          "entertainment.museum",
          "fee"
        ],
        "lat": 45.777106,
        "lon": 4.8336847
      },
      {
        "name": "La Bodeguita Cubana",
        "categories": [
          "catering",
          "catering.restaurant",
          "catering.restaurant.cuban"
        ],
        "lat": 45.7778233,
        "lon": 4.8300469
      },
      {
        "name": "Bernachon Passion",
        "categories": [
          "catering",
          "catering.restaurant",
          "catering.restaurant.french"
        ],
        "lat": 45.7689349,
        "lon": 4.8477955
      },
      {
        "name": "Musée des Moulages",
        "categories": [
          "entertainment",
          "entertainment.museum",
          "no_fee",
          "no_fee.no"
        ],
        "lat": 45.7515932,
        "lon": 4.8543123
      },
      {
        "name": "Le Jean Moulin",
        "categories": [
          "catering",
          "catering.restaurant",
          "catering.restaurant.french",
          "catering.restaurant.regional"
        ],
        "lat": 45.768377,
        "lon": 4.8479097
      },
      {
        "name": "Nakata",
        "categories": [
          "catering",
          "catering.restaurant",
          "catering.restaurant.japanese"
        ],
        "lat": 45.7578051,
        "lon": 4.858083
      },
      {
        "name": "Laska",
        "categories": [
          "catering",
          "catering.restaurant",
          "vegan",
          "vegetarian"
        ],
        "lat": 45.7687714,
        "lon": 4.8356278
      },
      {
        "name": "Les Enfants du Paradis",
        "categories": [
          "catering",
          "catering.restaurant",
          "catering.restaurant.french"
        ],
        "lat": 45.7749702,
        "lon": 4.8239656
      },
      {
        "name": "Musée de l'informatique du centre de calcul de l'IN2P3",
        "categories": [
          "entertainment",
          "entertainment.museum",
          "no_fee",
          "no_fee.no"
        ],
        "lat": 45.7826131,
        "lon": 4.8653343
      },
      {
        "name": "La Feria (Lyon)",
        "categories": [
          "catering",
          "catering.bar",
          "internet_access"
        ],
        "lat": 45.7635317,
        "lon": 4.8289054
      },
      {
        "name": "Wakoo Park",
        "categories": [
          "entertainment",
          "entertainment.theme_park",
          "fee",
          "wheelchair",
          "wheelchair.yes"
        ],
        "lat": 45.7195112,
        "lon": 4.894704580031641
      },
      {
        "name": "Fourvière Hôtel",
        "categories": [
          "accommodation",
          "accommodation.hotel",
          "building",
          "building.accommodation"
        ],
        "lat": 45.7586625,
        "lon": 4.816346088028168
      },
      {
        "name": "Hôtel Bayard",
        "categories": [
          "accommodation",
          "accommodation.hotel",
          "building",
          "building.accommodation",
          "building.historic",
          "heritage",
          "internet_access"
        ],
        "lat": 45.7562506,
        "lon": 4.8324467449418975
      },
      {
        "name": "Halles de Lyon Paul Bocuse",
        "categories": [
          "building",
          "building.commercial",
          "commercial",
          "commercial.marketplace",
          "commercial.shopping_mall",
          "wheelchair",
          "wheelchair.yes"
        ],
        "lat": 45.762831899999995,
        "lon": 4.8505505703189975
      },
      {
        "name": "Grand Hôtel-Dieu",
        "categories": [
          "building",
          "building.commercial",
          "building.historic",
          "commercial",
          "commercial.shopping_mall",
          "heritage",
          "tourism",
          "tourism.sights",
          "wheelchair",
          "wheelchair.yes"
        ],
        "lat": 45.7586965,
        "lon": 4.836614073754669
      },
      {
        "name": "Parc de la Cerisaie",
        "categories": [
          "leisure",
          "leisure.park"
        ],
        "lat": 45.77567385,
        "lon": 4.816229644310271
      },
      {
        "name": "L'Esprit Bistrot",
        "categories": [
          "catering",
          "catering.restaurant",
          "catering.restaurant.french"
        ],
        "lat": 45.7410332,
        "lon": 4.8689407
      },
      {
        "name": "Jardin du Château",
        "categories": [
          "leisure",
          "leisure.park",
          "no_dogs"
        ],
        "lat": 45.7492557,
        "lon": 4.887446025996171
      },
      {
        "name": "Marmocchi",
        "categories": [
          "building",
          "building.catering",
          "catering",
          "catering.restaurant"
        ],
        "lat": 45.755566599999995,
        "lon": 4.815816387268036
      },
      {
        "name": "Nouvel institut franco-chinois",
        "categories": [
          "building",
          "entertainment",
          "entertainment.museum"
        ],
        "lat": 45.754632,
        "lon": 4.811131000958964
      },
      {
        "name": "La Rive Gauche",
        "categories": [
          "building",
          "building.catering",
          "catering",
          "catering.restaurant",
          "catering.restaurant.french"
        ],
        "lat": 45.72421085,
        "lon": 4.823694400211994
      },
      {
        "name": "Restaurant Léon de Lyon",
        "categories": [
          "catering",
          "catering.restaurant"
        ],
        "lat": 45.7660411,
        "lon": 4.8335068
      },
      {
        "name": "Vélcroc",
        "categories": [
          "building",
          "building.catering",
          "building.commercial",
          "catering",
          "catering.cafe",
          "vegan"
        ],
        "lat": 45.7641246,
        "lon": 4.841322725603442
      },