[
  {
    "country": "France",
    "city": "Paris",
    "lat": 48.8534951,
    "lon": 2.3483915,
    "pois": [
      {
        "name": "Fondation Cartier pour l'art contemporain",
        "categories": [
          "museum",
          "accessible"
        ],
        "lat": 48.83736825,
        "lon": 2.331912990682282
      },
      {
        "name": "Domaine national de Saint-Cloud",
        "categories": [
          "historical",
          "attraction"
        ],
        "lat": 48.833749600000004,
        "lon": 2.1964653653893036
      },
      {
        "name": "Sainte-Chapelle",
        "categories": [
          "museum",
          "historical",
          "church",
          "accessible",
          "viewpoint"
        ],
        "lat": 48.8553933,
        "lon": 2.34499406295433
      },
      {
        "name": "Musée des beaux-arts de la Ville de Paris",
        "categories": [
          "historical",
          "museum",
          "wifi",
          "accessible"
        ],
        "lat": 48.866042,
        "lon": 2.3153496472839956
      },
      {
        "name": "Musée Carnavalet",
        "categories": [
          "museum",
          "wifi",
          "accessible"
        ],
        "lat": 48.85732324999999,
        "lon": 2.3624733783107805
      },
      {
        "name": "Musée Bourdelle",
        "categories": [
          "museum",
          "wifi",
          "accessible"
        ],
        "lat": 48.843215,
        "lon": 2.318663236817872
      },
      {
        "name": "Palais Galliera",
        "categories": [
          "museum",
          "accessible"
        ],
        "lat": 48.8657028,
        "lon": 2.2965064253978102
      },
      {
        "name": "Hôtel Plaza Athénée",
        "categories": [
          "historical",
          "lodging",
          "wifi"
        ],
        "lat": 48.866381450000006,
        "lon": 2.303892572915755
      },
      {
        "name": "Fondation Henri Cartier-Bresson",
        "categories": [
          "museum",
          "accessible"
        ],
        "lat": 48.863219650000005,
        "lon": 2.3598871107292316
      },
      {
        "name": "Jardin des Plantes",
        "categories": [
          "accessible",
          "historical",
          "attraction"
        ],
        "lat": 48.844036,
        "lon": 2.3597320957178876
      },
      {
        "name": "Musée du quai Branly - Jacques Chirac",
        "categories": [
          "museum",
          "accessible"
        ],
        "lat": 48.8609943,
        "lon": 2.297969635195826
      },
      {
        "name": "Galerie de Minéralogie et de Géologie",
        "categories": [
          "museum"
        ],
        "lat": 48.8418166,
        "lon": 2.3577811012125043
      },
      {
        "name": "Galeries de Paléontologie et d'Anatomie comparée",
        "categories": [
          "museum",
          "accessible"
        ],
        "lat": 48.8431322,
        "lon": 2.3628449209845424
      },
      {
        "name": "Collège des Bernardins",
        "categories": [
          "viewpoint",
          "attraction"
        ],
        "lat": 48.84883415,
        "lon": 2.3519828978158808
      },
      {
        "name": "Musée National de Céramique",
        "categories": [
          "museum"
        ],
        "lat": 48.82868175,
        "lon": 2.223050158499171
      },
      {
        "name": "Halle Saint-Pierre",
        "categories": [
          "museum"
        ],
        "lat": 48.88489115,
        "lon": 2.3445286825501586
      },
      {
        "name": "La Recyclerie",
        "categories": [
          "vegan",
          "restaurant",
          "wifi",
          "accessible"
        ],
        "lat": 48.89762175,
        "lon": 2.3440597762162603
      },
      {
        "name": "Jeu de Paume",
        "categories": [
          "museum",
          "wifi",
          "accessible"
        ],
        "lat": 48.865815600000005,
        "lon": 2.324087761320741
      },
      {
        "name": "Musée de l'Orangerie",
        "categories": [
          "museum",
          "wifi",
          "accessible"
        ],
        "lat": 48.8637655,
        "lon": 2.322660207806927
      },
      {
        "name": "Centre Georges Pompidou",
        "categories": [
          "accessible",
          "attraction"
        ],
        "lat": 48.860591799999995,
        "lon": 2.3524736024856843
      },
      {
        "name": "Grand Palais",
        "categories": [
          "historical",
          "museum",
          "accessible"
        ],
        "lat": 48.86616135,
        "lon": 2.3122229353846153
      },
      {
        "name": "Pavillon de l'Arsenal",
        "categories": [
          "museum",
          "accessible"
        ],
        "lat": 48.850598,
        "lon": 2.3621838016520575
      },
      {
        "name": "Musée de Cluny",
        "categories": [
          "museum"
        ],
        "lat": 48.85064945,
        "lon": 2.3435643010185183
      },
      {
        "name": "Musée national Picasso-Paris",
        "categories": [
          "museum"
        ],
        "lat": 48.8598698,
        "lon": 2.3621151762679444
      },
      {
        "name": "Musée Cognacq-Jay",
        "categories": [
          "museum"
        ],
        "lat": 48.85812085,
        "lon": 2.3616823888956446
      },
      {
        "name": "Musée d'Orsay",
        "categories": [
          "historical",
          "museum",
          "accessible"
        ],
        "lat": 48.85991785,
        "lon": 2.3265849372230356
      },
      {
        "name": "Pavillon du Lac",
        "categories": [
          "restaurant",
          "accessible"
        ],
        "lat": 48.8807678,
        "lon": 2.380943873158756
      },
      {
        "name": "So Ouest",
        "categories": [
          "accessible"
        ],
        "lat": 48.8923774,
        "lon": 2.29651807460305
      },
      {
        "name": "Immeuble Molitor",
        "categories": [
          "historical",
          "museum",
          "viewpoint"
        ],
        "lat": 48.843390150000005,
        "lon": 2.25128194339504
      },
      {
        "name": "Musée Nissim de Camondo",
        "categories": [
          "museum"
        ],
        "lat": 48.87917145,
        "lon": 2.3123457291618754
      },
      {
        "name": "Musée Cernuschi",
        "categories": [
          "museum",
          "wifi",
          "accessible"
        ],
        "lat": 48.87943215,
        "lon": 2.3125643967925473
      },
      {
        "name": "Château d'Asnières",
        "categories": [
          "historical",
          "museum",
          "viewpoint"
        ],
        "lat": 48.910521349999996,
        "lon": 2.2935362849192593
      },
      {
        "name": "Musée d'Histoire Urbaine et Sociale",
        "categories": [
          "museum"
        ],
        "lat": 48.868207600000005,
        "lon": 2.221619823857867
      },
      {
        "name": "Pavillon de Vendôme",
        "categories": [
          "historical",
          "museum"
        ],
        "lat": 48.904824399999995,
        "lon": 2.3039255091675095
      },
      {
        "name": "Italie Deux",
        "categories": [
          "accessible"
        ],
        "lat": 48.8288016,
        "lon": 2.355392137671233
      },
      {
        "name": "Italie Deux",
        "categories": [
          "accessible"
        ],
        "lat": 48.8302306,
        "lon": 2.355207538112252
      },
      {
        "name": "Musée d'Art Moderne de Paris",
        "categories": [
          "museum",
          "wifi"
        ],
        "lat": 48.8643133,
        "lon": 2.2978602225671843
      },
      {
        "name": "Palais de Tokyo",
        "categories": [
          "museum"
        ],
        "lat": 48.8639905,
        "lon": 2.2965215131311423
      },
      {
        "name": "Musée de la Libération de Paris",
        "categories": [
          "museum",
          "viewpoint"
        ],
        "lat": 48.83411115,
        "lon": 2.3317224185448824
      },
      {
        "name": "Musée Guimet",
        "categories": [
          "historical",
          "museum"
        ],
        "lat": 48.86537895,
        "lon": 2.2935932775390624
      },
      {
        "name": "Grande Galerie de l'Évolution",
        "categories": [
          "museum",
          "accessible"
        ],
        "lat": 48.8421055,
        "lon": 2.356243821803625
      },
      {
        "name": "Musée de la Vie Romantique",
        "categories": [
          "museum",
          "accessible"
        ],
        "lat": 48.8813455,
        "lon": 2.3335217087540743
      },
      {
        "name": "Maison de Balzac",
        "categories": [
          "historical",
          "museum",
          "wifi"
        ],
        "lat": 48.85520045,
        "lon": 2.280887878271276
      },
      {
        "name": "Pavillon de l'Eau",
        "categories": [
          "museum"
        ],
        "lat": 48.846347699999995,
        "lon": 2.2732064282775286
      },
      {
        "name": "Jardin du Luxembourg",
        "categories": [
          "accessible",
          "attraction"
        ],
        "lat": 48.84672275,
        "lon": 2.336414752172717
      },
      {
        "name": "Exploradôme",
        "categories": [
          "museum",
          "accessible"
        ],
        "lat": 48.7931769,
        "lon": 2.3931014109591286
      },
      {
        "name": "Maison de la Culture du Japon",
        "categories": [
          "museum",
          "accessible"
        ],
        "lat": 48.85473705,
        "lon": 2.289777754814347
      },
      {
        "name": "Musée Zadkine",
        "categories": [
          "museum"
        ],
        "lat": 48.84280355,
        "lon": 2.333797080318844
      },
      {
        "name": "Musée de Montmartre",
        "categories": [
          "museum",
          "accessible"
        ],
        "lat": 48.88804985,
        "lon": 2.340629738959537
      },
      {
        "name": "Musée de la chasse et de la nature",
        "categories": [
          "museum"
        ],
        "lat": 48.86125555,
        "lon": 2.358782698354484
      },
      {
        "name": "Crypte Archéologique du Parvis Notre-Dame",
        "categories": [
          "museum",
          "viewpoint"
        ],
        "lat": 48.85360045,
        "lon": 2.3481491067452906
      },
      {
        "name": "Musée du Luxembourg",
        "categories": [
          "museum",
          "accessible"
        ],
        "lat": 48.848570949999996,
        "lon": 2.3340107179084693
      },
      {
        "name": "Cathédrale Notre-Dame de Paris",
        "categories": [
          "historical",
          "attraction",
          "church",
          "accessible",
          "viewpoint"
        ],
        "lat": 48.85293705,
        "lon": 2.3500501225000026
      },
      {
        "name": "Le Café Marly",
        "categories": [
          "wifi",
          "cafe",
          "accessible"
        ],
        "lat": 48.8616428,
        "lon": 2.3359304
      },
      {
        "name": "Musée des Arts et Métiers",
        "categories": [
          "museum",
          "accessible"
        ],
        "lat": 48.8660977,
        "lon": 2.3554138
      },
      {
        "name": "Café des Phares",
        "categories": [
          "wifi",
          "cafe",
          "accessible"
        ],
        "lat": 48.8536169,
        "lon": 2.368253
      },
      {
        "name": "La Tour d'Argent",
        "categories": [
          "restaurant"
        ],
        "lat": 48.84983,
        "lon": 2.3549148
      },
      {
        "name": "Brasserie Lipp",
        "categories": [
          "historical",
          "restaurant"
        ],
        "lat": 48.8537528,
        "lon": 2.3324105
      },
      {
        "name": "Polidor",
        "categories": [
          "restaurant",
          "accessible"
        ],
        "lat": 48.8498182,
        "lon": 2.3401339
      },
      {
        "name": "Musée Grévin",
        "categories": [
          "historical",
          "museum",
          "accessible"
        ],
        "lat": 48.8718365,
        "lon": 2.3420974
      },
      {
        "name": "Musée Edith Piaf",
        "categories": [
          "museum"
        ],
        "lat": 48.8662368,
        "lon": 2.3817367
      },
      {
        "name": "Clown-Bar",
        "categories": [
          "historical",
          "restaurant"
        ],
        "lat": 48.8636232,
        "lon": 2.3671745
      },
      {
        "name": "Espace Dali",
        "categories": [
          "museum"
        ],
        "lat": 48.88648,
        "lon": 2.3399022
      },
      {
        "name": "Cité des Sciences et de l'Industrie",
        "categories": [
          "museum",
          "wifi",
          "accessible"
        ],
        "lat": 48.8957518,
        "lon": 2.3879761
      },
      {
        "name": "Maison de Victor Hugo",
        "categories": [
          "museum",
          "wifi"
        ],
        "lat": 48.854799,
        "lon": 2.3661358
      },
      {
        "name": "Fondation Louis Vuitton",
        "categories": [
          "museum",
          "accessible"
        ],
        "lat": 48.876650049999995,
        "lon": 2.2633380958024594
      },
      {
        "name": "Maison Européenne de la Photographie",
        "categories": [
          "museum",
          "accessible"
        ],
        "lat": 48.8551205,
        "lon": 2.3589562
      },
      {
        "name": "Musée national Eugène Delacroix",
        "categories": [
          "historical",
          "museum"
        ],
        "lat": 48.85464155,
        "lon": 2.335393670592886
      },
      {
        "name": "Westfield Forum des Halles",
        "categories": [
          "wifi",
          "accessible"
        ],
        "lat": 48.86187795,
        "lon": 2.3471384386899565
      },
      {
        "name": "Musée de la Poupée",
        "categories": [
          "museum"
        ],
        "lat": 48.8616153,
        "lon": 2.3542965
      },
      {
        "name": "Grande Mosquée de Paris",
        "categories": [
          "viewpoint",
          "accessible",
          "attraction"
        ],
        "lat": 48.842069249999994,
        "lon": 2.35510339377676
      },
      {
        "name": "Boom Boom Villette",
        "categories": [
          "accessible"
        ],
        "lat": 48.89628165,
        "lon": 2.3890524169316807
      },
      {
        "name": "Musée Rodin",
        "categories": [
          "museum",
          "accessible"
        ],
        "lat": 48.85474735,
        "lon": 2.3158669998625365
      },
      {
        "name": "Catacombes de Paris",
        "categories": [
          "museum"
        ],
        "lat": 48.8337437,
        "lon": 2.3322959
      },
      {
        "name": "Au Chien qui Fume",
        "categories": [
          "restaurant",
          "wifi",
          "accessible"
        ],
        "lat": 48.8613541,
        "lon": 2.3448441
      },
      {
        "name": "Le Petit Bouillon Pharamond",
        "categories": [
          "accessible",
          "restaurant",
          "attraction"
        ],
        "lat": 48.8630052,
        "lon": 2.3485011
      },
      {
        "name": "L'Escargot Montorgueil",
        "categories": [
          "historical",
          "restaurant",
          "accessible"
        ],
        "lat": 48.8641678,
        "lon": 2.3467038
      },
      {
        "name": "La Coupole",
        "categories": [
          "restaurant",
          "accessible"
        ],
        "lat": 48.8422778,
        "lon": 2.3280902
      },
      {
        "name": "Brasserie Bofinger",
        "categories": [
          "accessible",
          "historical",
          "restaurant",
          "attraction"
        ],
        "lat": 48.8539095,
        "lon": 2.3680433
      },
      {
        "name": "Musée de la Poste",
        "categories": [
          "museum",
          "accessible"
        ],
        "lat": 48.8414574,
        "lon": 2.3172246
      },
      {
        "name": "Galerie-musée Baccarat",
        "categories": [
          "museum",
          "accessible"
        ],
        "lat": 48.8677629,
        "lon": 2.2935696
      },
      {
        "name": "Musée Albert Kahn",
        "categories": [
          "museum",
          "accessible"
        ],
        "lat": 48.8413452,
        "lon": 2.2282740365070524
      },
      {
        "name": "Musée du chocolat",
        "categories": [
          "museum",
          "accessible"
        ],
        "lat": 48.8705899,
        "lon": 2.3500828
      },
      {
        "name": "Cité de l'architecture et du patrimoine",
        "categories": [
          "museum",
          "accessible"
        ],
        "lat": 48.8628901,
        "lon": 2.288981
      },
      {
        "name": "Musée de la Marine",
        "categories": [
          "museum",
          "accessible"
        ],
        "lat": 48.8618163,
        "lon": 2.2873421
      },
      {
        "name": "Musée de la Franc-Maçonnerie",
        "categories": [
          "museum",
          "accessible"
        ],
        "lat": 48.8749151,
        "lon": 2.3431481
      },
      {
        "name": "L'Opéra Restaurant",
        "categories": [
          "restaurant",
          "accessible"
        ],
        "lat": 48.8720949,
        "lon": 2.3323339
      },
      {
        "name": "Fondation Le Corbusier",
        "categories": [
          "museum"
        ],
        "lat": 48.851907,
        "lon": 2.265225
      },
      {
        "name": "Musée Adam Mickiewicz",
        "categories": [
          "museum"
        ],
        "lat": 48.8513494,
        "lon": 2.355588
      },
      {
        "name": "Musée de Minéralogie",
        "categories": [
          "museum",
          "accessible"
        ],
        "lat": 48.8453935,
        "lon": 2.3394599
      },
      {
        "name": "Bibliothèque-Musée de l'Opéra",
        "categories": [
          "museum",
          "accessible"
        ],
        "lat": 48.871882,
        "lon": 2.331212
      },
      {
        "name": "Le Grand Véfour",
        "categories": [
          "restaurant"
        ],
        "lat": 48.8661551,
        "lon": 2.3379157
      },
      {
        "name": "Le Dôme",
        "categories": [
          "restaurant"
        ],
        "lat": 48.8419574,
        "lon": 2.3290304
      },
      {
        "name": "Bouillon Racine",
        "categories": [
          "restaurant"
        ],
        "lat": 48.850156,
        "lon": 2.3420157
      },
      {
        "name": "Oculto",
        "categories": [
          "restaurant",
          "accessible"
        ],
        "lat": 48.8601219,
        "lon": 2.3499738
      },
      {
        "name": "La Closerie des Lilas",
        "categories": [
          "restaurant"
        ],
        "lat": 48.8401082,
        "lon": 2.3360508
      },
      {
        "name": "Le Procope",
        "categories": [
          "restaurant"
        ],
        "lat": 48.8530584,
        "lon": 2.3387505
      },
      {
        "name": "Le Cochon à l'Oreille",
        "categories": [
          "restaurant"
        ],
        "lat": 48.8644516,
        "lon": 2.3451744
      },
      {
        "name": "Art Ludique - Le Musée",
        "categories": [
          "museum"
        ],
        "lat": 48.8405179,
        "lon": 2.3703276
      },
      {
        "name": "Musée Fragonard",
        "categories": [
          "museum"
        ],
        "lat": 48.8127927,
        "lon": 2.4233716
      },
      {
        "name": "Le Saint-Sauveur",
        "categories": [
          "restaurant",
          "accessible"
        ],
        "lat": 48.866505,
        "lon": 2.3851161
      },
      {
        "name": "Bercy Village",
        "categories": [
          "accessible"
        ],
        "lat": 48.8330311,
        "lon": 2.3863995
      },
      {
        "name": "La Mère Catherine",
        "categories": [
          "restaurant"
        ],
        "lat": 48.886752,
        "lon": 2.3408024
      },
      {
        "name": "Musée des Plans-Reliefs",
        "categories": [
          "museum",
          "accessible"
        ],
        "lat": 48.8564589,
        "lon": 2.3132374
      },
      {
        "name": "Musée de l'Histoire Vivante",
        "categories": [
          "museum"
        ],
        "lat": 48.8660128,
        "lon": 2.4718198
      },
      {
        "name": "Musée des Archives nationales",
        "categories": [
          "museum"
        ],
        "lat": 48.8604503,
        "lon": 2.3578119
      },
      {
        "name": "Musée National de l'Histoire de l'Immigration",
        "categories": [
          "museum"
        ],
        "lat": 48.8351424,
        "lon": 2.4093613
      },
      {
        "name": "Le Chateaubriand",
        "categories": [
          "restaurant"
        ],
        "lat": 48.8693116,
        "lon": 2.3713458
      },
      {
        "name": "Musée Rodin",
        "categories": [
          "museum"
        ],
        "lat": 48.8146963,
        "lon": 2.2517826
      },
      {
        "name": "Le Select",
        "categories": [
          "restaurant",
          "accessible"
        ],
        "lat": 48.8426185,
        "lon": 2.3283851
      },
      {
        "name": "Le Musée du Fumeur",
        "categories": [
          "museum",
          "accessible"
        ],
        "lat": 48.8586455,
        "lon": 2.382222
      },
      {
        "name": "Musée Banksy",
        "categories": [
          "museum"
        ],
        "lat": 48.8746285,
        "lon": 2.3417156
      },
      {
        "name": "Bouillon Chartier",
        "categories": [
          "restaurant",
          "accessible"
        ],
        "lat": 48.8719356,
        "lon": 2.3430137
      },
      {
        "name": "Musée des égouts",
        "categories": [
          "museum",
          "accessible"
        ],
        "lat": 48.8626334,
        "lon": 2.3025814
      },
      {
        "name": "Musée social",
        "categories": [
          "museum"
        ],
        "lat": 48.8578438,
        "lon": 2.3217902
      },
      {
        "name": "Musée Curie",
        "categories": [
          "museum"
        ],
        "lat": 48.8442383,
        "lon": 2.3447906
      },
      {
        "name": "Musée du Parfum Fragonard",
        "categories": [
          "museum"
        ],
        "lat": 48.8715287,
        "lon": 2.330216
      },
      {
        "name": "Club 13",
        "categories": [
          "restaurant"
        ],
        "lat": 48.8769544,
        "lon": 2.3031339
      },
      {
        "name": "Musée national Jean-Jacques Henner",
        "categories": [
          "museum",
          "accessible"
        ],
        "lat": 48.8830349,
        "lon": 2.3076969
      },
      {
        "name": "Musée de la Légion d'Honneur et des Ordres de Chevalerie",
        "categories": [
          "museum"
        ],
        "lat": 48.8602946,
        "lon": 2.3247235
      },
      {
        "name": "Musée du Louvre",
        "categories": [
          "museum",
          "wifi",
          "accessible"
        ],
        "lat": 48.8611473,
        "lon": 2.33802768704666
      },
      {
        "name": "Palais du Louvre",
        "categories": [
          "viewpoint",
          "historical",
          "accessible",
          "attraction"
        ],
        "lat": 48.86147245,
        "lon": 2.3368747442628885
      },
      {
        "name": "Tour Eiffel",
        "categories": [
          "viewpoint",
          "historical",
          "attraction"
        ],
        "lat": 48.8582599,
        "lon": 2.2945006358633115
      },
      {
        "name": "Tour Montparnasse",
        "categories": [
          "viewpoint",
          "accessible",
          "attraction"
        ],
        "lat": 48.842109750000006,
        "lon": 2.321972123611115
      },
      {
        "name": "Panthéon",
        "categories": [
          "accessible",
          "attraction"
        ],
        "lat": 48.84619085,
        "lon": 2.346078521905153
      },
      {
        "name": "Bourse du Commerce",
        "categories": [
          "museum",
          "accessible"
        ],
        "lat": 48.8628174,
        "lon": 2.34283637341099
      },
      {
        "name": "Tour Saint-Jacques",
        "categories": [
          "viewpoint",
          "historical",
          "attraction"
        ],
        "lat": 48.8580032,
        "lon": 2.3489217129013236
      },
      {
        "name": "Basilique du Sacré-Cœur",
        "categories": [
          "viewpoint",
          "accessible",
          "church",
          "attraction"
        ],
        "lat": 48.88680575,
        "lon": 2.3430153448835087
      },
      {
        "name": "Jardin des Tuileries",
        "categories": [
          "historical",
          "accessible"
        ],
        "lat": 48.863566199999994,
        "lon": 2.326955235215837
      },
      {
        "name": "Arc de Triomphe",
        "categories": [
          "viewpoint",
          "historical",
          "attraction"
        ],
        "lat": 48.8737791,
        "lon": 2.295037226037673
      },
      {
        "name": "Columbus Café & Co",
        "categories": [
          "cafe"
        ],
        "lat": 48.8463782,
        "lon": 2.3799128
      },
      {
        "name": "Casa Festa",
        "categories": [
          "restaurant"
        ],
        "lat": 48.8625897,
        "lon": 2.34081
      },
      {
        "name": "Aux Ours",
        "categories": [
          "restaurant",
          "accessible"
        ],
        "lat": 48.8675526,
        "lon": 2.3966014
      },
      {
        "name": "Bông Cafe",
        "categories": [
          "wifi",
          "cafe"
        ],
        "lat": 48.7785605,
        "lon": 2.2940111
      },
      {
        "name": "Dépôt Légal",
        "categories": [
          "restaurant",
          "accessible"
        ],
        "lat": 48.840949,
        "lon": 2.3210860047858946
      },
      {
        "name": "Square Charles Péguy",
        "categories": [
          "wifi"
        ],
        "lat": 48.83915285,
        "lon": 2.4066183143581465
      },
      {
        "name": "Parc Montsouris",
        "categories": [
          "accessible",
          "attraction"
        ],
        "lat": 48.8219907,
        "lon": 2.337792152329822
      },
      {
        "name": "Hôtel des Invalides",
        "categories": [
          "viewpoint",
          "attraction"
        ],
        "lat": 48.855953650000004,
        "lon": 2.3133430973100904
      },
      {
        "name": "Hôtel Méridien Etoile",
        "categories": [
          "lodging",
          "accessible"
        ],
        "lat": 48.879540250000005,
        "lon": 2.2853816492180723
      },
      {
        "name": "Hilton Paris Opera",
        "categories": [
          "lodging",
          "wifi"
        ],
        "lat": 48.87572165,
        "lon": 2.3258962791827065
      }
    ],
    "city_tags": [
      "museum",
      "food"
    ]
  },
  {
    "country": "France",
    "city": "Marseille",
    "lat": 43.2961743,
    "lon": 5.3699525,
    "pois": [
      {
        "name": "Musée des Beaux-Arts",
        "categories": [
          "museum"
        ],
        "lat": 43.304596450000005,
        "lon": 5.394039596087057
      },
      {
        "name": "Muséum d'Histoire Naturelle",
        "categories": [
          "museum"
        ],
        "lat": 43.303785649999995,
        "lon": 5.394594639673371
      },
      {
        "name": "Musée Cantini",
        "categories": [
          "accessible",
          "museum",
          "viewpoint"
        ],
        "lat": 43.292207399999995,
        "lon": 5.378208413712626
      },
      {
        "name": "Musée des Civilisations de l'Europe et de la Méditerranée",
        "categories": [
          "museum",
          "accessible"
        ],
        "lat": 43.29672875,
        "lon": 5.361025473368164
      },
      {
        "name": "Musée d'histoire de Marseille",
        "categories": [
          "museum"
        ],
        "lat": 43.2975573,
        "lon": 5.3756864
      },
      {
        "name": "Musée des Arts Africains, Océaniens, Amérindiens",
        "categories": [
          "museum",
          "accessible"
        ],
        "lat": 43.301009,
        "lon": 5.3681139
      },
      {
        "name": "Musée d'Archéologie Méditerranéenne",
        "categories": [
          "museum",
          "accessible"
        ],
        "lat": 43.3005836,
        "lon": 5.3682814
      },
      {
        "name": "Cathédrale de la Major",
        "categories": [
          "viewpoint",
          "historical",
          "church",
          "attraction"
        ],
        "lat": 43.2997902,
        "lon": 5.364938176185101
      },
      {
        "name": "Columbus Café & Co",
        "categories": [
          "cafe"
        ],
        "lat": 43.2949927,
        "lon": 5.4776311
      },
      {
        "name": "Baraka jeux",
        "categories": [
          "restaurant",
          "accessible"
        ],
        "lat": 43.29492,
        "lon": 5.3830942
      },
      {
        "name": "Château d'If",
        "categories": [
          "historical",
          "attraction"
        ],
        "lat": 43.27985595,
        "lon": 5.3252840193832025
      },
      {
        "name": "Les Docks Village",
        "categories": [
          "accessible",
          "viewpoint"
        ],
        "lat": 43.30729155,
        "lon": 5.366491799734845
      },
      {
        "name": "Jardin des Vestiges",
        "categories": [
          "historical",
          "viewpoint"
        ],
        "lat": 43.29762169999999,
        "lon": 5.3749032087230315
      },
      {
        "name": "Musée Grobet-Labadié",
        "categories": [
          "historical",
          "museum",
          "viewpoint"
        ],
        "lat": 43.30331955,
        "lon": 5.392977868575647
      },
      {
        "name": "Mémorial des déportations",
        "categories": [
          "museum",
          "accessible"
        ],
        "lat": 43.29555525,
        "lon": 5.3624854682621175
      },
      {
        "name": "B & B Hôtels",
        "categories": [
          "lodging",
          "wifi",
          "accessible"
        ],
        "lat": 43.274654,
        "lon": 5.3933772894973
      },
      {
        "name": "Frac Sud - Cité de l'art contemporain",
        "categories": [
          "museum",
          "accessible"
        ],
        "lat": 43.305277450000006,
        "lon": 5.367795803719991
      },
      {
        "name": "Musée des Docks romains",
        "categories": [
          "historical",
          "museum",
          "viewpoint"
        ],
        "lat": 43.29682785,
        "lon": 5.368041457187139
      },
      {
        "name": "Italova",
        "categories": [
          "restaurant"
        ],
        "lat": 43.2645529,
        "lon": 5.409200098230085
      },
      {
        "name": "Palais du Pharo",
        "categories": [
          "viewpoint",
          "accessible",
          "attraction"
        ],
        "lat": 43.29424765,
        "lon": 5.358032066392101
      },
      {
        "name": "Centre commercial Les Terrasses du Port",
        "categories": [
          "accessible"
        ],
        "lat": 43.306934999999996,
        "lon": 5.364485517701862
      },
      {
        "name": "Ashourya",
        "categories": [
          "vegan",
          "restaurant"
        ],
        "lat": 43.2952729,
        "lon": 5.3824967
      },
      {
        "name": "Dubble",
        "categories": [
          "restaurant",
          "wifi",
          "accessible"
        ],
        "lat": 43.2757132,
        "lon": 5.3890752
      },
      {
        "name": "Le Petit Nice Passedat",
        "categories": [
          "lodging",
          "vegan",
          "wifi",
          "accessible"
        ],
        "lat": 43.2802191,
        "lon": 5.3520689
      },
      {
        "name": "La Caravelle",
        "categories": [
          "restaurant"
        ],
        "lat": 43.2964951,
        "lon": 5.3720473
      },
      {
        "name": "Tabla",
        "categories": [
          "vegan",
          "restaurant"
        ],
        "lat": 43.2927708,
        "lon": 5.3834447
      },
      {
        "name": "Côté Cours",
        "categories": [
          "restaurant"
        ],
        "lat": 43.2929413,
        "lon": 5.3839138
      },
      {
        "name": "Barbotyne",
        "categories": [
          "cafe"
        ],
        "lat": 43.2981933,
        "lon": 5.3876894
      },
      {
        "name": "Au Bout du Quai",
        "categories": [
          "restaurant"
        ],
        "lat": 43.2955262,
        "lon": 5.36482
      },
      {
        "name": "La Bakery By Deïa",
        "categories": [
          "cafe"
        ],
        "lat": 43.2939347,
        "lon": 5.3761278
      },
      {
        "name": "Entre Terre et Mer",
        "categories": [
          "restaurant",
          "wifi"
        ],
        "lat": 43.2992565,
        "lon": 5.3687373
      },
      {
        "name": "Bières, Paul, Jacques",
        "categories": [
          "restaurant"
        ],
        "lat": 43.298183,
        "lon": 5.3674522
      },
      {
        "name": "Dubble",
        "categories": [
          "restaurant",
          "wifi"
        ],
        "lat": 43.3044459,
        "lon": 5.3665895
      },
      {
        "name": "Le Mousse",
        "categories": [
          "restaurant"
        ],
        "lat": 43.2926964,
        "lon": 5.3725239
      },
      {
        "name": "Bistrot l'Horloge",
        "categories": [
          "restaurant",
          "accessible"
        ],
        "lat": 43.2927817,
        "lon": 5.3745337
      },
      {
        "name": "Matza",
        "categories": [
          "restaurant"
        ],
        "lat": 43.2921099,
        "lon": 5.3842971
      },
      {
        "name": "Label'Ferme",
        "categories": [
          "restaurant",
          "wifi"
        ],
        "lat": 43.2498953,
        "lon": 5.3818132
      },
      {
        "name": "Ristorante Del Arte",
        "categories": [
          "restaurant",
          "accessible"
        ],
        "lat": 43.2945732,
        "lon": 5.3748344
      },
      {
        "name": "Waroeng Bali",
        "categories": [
          "restaurant"
        ],
        "lat": 43.2837108,
        "lon": 5.3837532
      },
      {
        "name": "Le Yen Seiiki",
        "categories": [
          "restaurant"
        ],
        "lat": 43.2830198,
        "lon": 5.3849187
      },
      {
        "name": "Pizza La Patronne",
        "categories": [
          "restaurant"
        ],
        "lat": 43.2877651,
        "lon": 5.3823376
      },
      {
        "name": "La Salle des Machines",
        "categories": [
          "cafe"
        ],
        "lat": 43.3098258,
        "lon": 5.3906106
      },
      {
        "name": "l'Arôme",
        "categories": [
          "restaurant"
        ],
        "lat": 43.2942657,
        "lon": 5.384722
      },
      {
        "name": "Le Palais d'Asie",
        "categories": [
          "restaurant"
        ],
        "lat": 43.257388,
        "lon": 5.3945271
      },
      {
        "name": "Chez Michel",
        "categories": [
          "restaurant",
          "accessible"
        ],
        "lat": 43.2907009,
        "lon": 5.356069
      },
      {
        "name": "Manifesten",
        "categories": [
          "cafe"
        ],
        "lat": 43.2968254,
        "lon": 5.3855235
      },
      {
        "name": "Une table au sud",
        "categories": [
          "restaurant",
          "accessible"
        ],
        "lat": 43.2963677,
        "lon": 5.373659
      },
      {
        "name": "Taste",
        "categories": [
          "restaurant"
        ],
        "lat": 43.3435353,
        "lon": 5.364586
      },
      {
        "name": "Hippopotamus Marseille la Valentine",
        "categories": [
          "restaurant",
          "accessible"
        ],
        "lat": 43.2893233,
        "lon": 5.4806831
      },
      {
        "name": "L'Argentin Grill",
        "categories": [
          "restaurant"
        ],
        "lat": 43.2858798,
        "lon": 5.3848251
      },
      {
        "name": "Le Sri Ganesh",
        "categories": [
          "restaurant"
        ],
        "lat": 43.2926692,
        "lon": 5.3721084
      },
      {
        "name": "Chez Ze",
        "categories": [
          "restaurant"
        ],
        "lat": 43.2246768,
        "lon": 5.4168244
      },
      {
        "name": "Le Levant",
        "categories": [
          "restaurant"
        ],
        "lat": 43.3007314,
        "lon": 5.3821114
      },
      {
        "name": "Minoofi Bakery",
        "categories": [
          "cafe"
        ],
        "lat": 43.2891012,
        "lon": 5.3785011
      },
      {
        "name": "Ashourya",
        "categories": [
          "vegan",
          "restaurant"
        ],
        "lat": 43.3015554,
        "lon": 5.387485
      },
      {
        "name": "Sumo Suhi Bar",
        "categories": [
          "restaurant"
        ],
        "lat": 43.3580131,
        "lon": 5.3380319
      },
      {
        "name": "Bien être et petits plats",
        "categories": [
          "vegan",
          "cafe"
        ],
        "lat": 43.2852603,
        "lon": 5.3819018
      },
      {
        "name": "Le Pulse",
        "categories": [
          "restaurant"
        ],
        "lat": 43.2930821,
        "lon": 5.3831577
      },
      {
        "name": "Wadina",
        "categories": [
          "restaurant"
        ],
        "lat": 43.2862957,
        "lon": 5.377544
      },
      {
        "name": "Friterie Werner & Co",
        "categories": [
          "restaurant"
        ],
        "lat": 43.2969804,
        "lon": 5.3818079
      },
      {
        "name": "Asabiya",
        "categories": [
          "restaurant"
        ],
        "lat": 43.2940672,
        "lon": 5.3830218
      },
      {
        "name": "Manneken-Pis",
        "categories": [
          "restaurant"
        ],
        "lat": 43.2903944,
        "lon": 5.3689316
      },
      {
        "name": "La Brasserie Communale",
        "categories": [
          "restaurant"
        ],
        "lat": 43.2937228,
        "lon": 5.3836565
      },
      {
        "name": "TA&Co",
        "categories": [
          "restaurant",
          "accessible"
        ],
        "lat": 43.2889767,
        "lon": 5.395782
      },
      {
        "name": "Mame Diarra",
        "categories": [
          "restaurant"
        ],
        "lat": 43.2959142,
        "lon": 5.3810383
      },
      {
        "name": "l'Oleas",
        "categories": [
          "restaurant"
        ],
        "lat": 43.2947645,
        "lon": 5.3831738
      },
      {
        "name": "Massilia",
        "categories": [
          "lodging"
        ],
        "lat": 43.3006848,
        "lon": 5.3801197
      },
      {
        "name": "Les Trésors du Liban",
        "categories": [
          "restaurant"
        ],
        "lat": 43.2620951,
        "lon": 5.4040099
      },
      {
        "name": "La Daurade",
        "categories": [
          "restaurant"
        ],
        "lat": 43.2934492,
        "lon": 5.3733846
      },
      {
        "name": "Ate Qu'enfim",
        "categories": [
          "restaurant"
        ],
        "lat": 43.2866144,
        "lon": 5.3904181
      },
      {
        "name": "Café Populaire",
        "categories": [
          "restaurant"
        ],
        "lat": 43.2887918,
        "lon": 5.3786203
      },
      {
        "name": "Dubble",
        "categories": [
          "restaurant"
        ],
        "lat": 43.2793467,
        "lon": 5.4055462
      },
      {
        "name": "Le Ziguinchor",
        "categories": [
          "restaurant"
        ],
        "lat": 43.2936866,
        "lon": 5.3846454
      },
      {
        "name": "Pizza TiTi",
        "categories": [
          "restaurant"
        ],
        "lat": 43.3601292,
        "lon": 5.3151332
      },
      {
        "name": "Petit Train de Marseille",
        "categories": [
          "attraction"
        ],
        "lat": 43.2956458,
        "lon": 5.3664384
      },
      {
        "name": "La Maison des raviolis",
        "categories": [
          "restaurant"
        ],
        "lat": 43.247515,
        "lon": 5.4005102
      },
      {
        "name": "La Maison des Raviolis - Italie",
        "categories": [
          "restaurant"
        ],
        "lat": 43.2902737,
        "lon": 5.3817502
      },
      {
        "name": "Le Cafouch aux Saveurs",
        "categories": [
          "restaurant"
        ],
        "lat": 43.356434,
        "lon": 5.3351493
      },
      {
        "name": "Ourea",
        "categories": [
          "vegan",
          "restaurant"
        ],
        "lat": 43.2906135,
        "lon": 5.3734652
      },
      {
        "name": "Le Petit Dugo",
        "categories": [
          "vegan",
          "restaurant",
          "accessible"
        ],
        "lat": 43.2983665,
        "lon": 5.3812189
      },
      {
        "name": "Le Toigou",
        "categories": [
          "restaurant"
        ],
        "lat": 43.2652456,
        "lon": 5.3904223
      },
      {
        "name": "Bernie",
        "categories": [
          "vegan",
          "restaurant",
          "wifi",
          "accessible"
        ],
        "lat": 43.2914319,
        "lon": 5.3809959
      },
      {
        "name": "L'Alveola, Pizza al taglio",
        "categories": [
          "restaurant"
        ],
        "lat": 43.2440569,
        "lon": 5.371432
      },
      {
        "name": "Marafiki",
        "categories": [
          "restaurant"
        ],
        "lat": 43.2985367,
        "lon": 5.3677017
      },
      {
        "name": "Le Comptoir aux Huiles by Delucce",
        "categories": [
          "restaurant"
        ],
        "lat": 43.298838,
        "lon": 5.366557
      },
      {
        "name": "Otto Marseille",
        "categories": [
          "restaurant"
        ],
        "lat": 43.2717951,
        "lon": 5.3867386
      },
      {
        "name": "Le Blum",
        "categories": [
          "restaurant"
        ],
        "lat": 43.2987898,
        "lon": 5.3835162
      },
      {
        "name": "Un jardin en ville",
        "categories": [
          "restaurant"
        ],
        "lat": 43.2692375,
        "lon": 5.3879442
      },
      {
        "name": "Elyssa",
        "categories": [
          "restaurant"
        ],
        "lat": 43.2927339,
        "lon": 5.3689063
      },
      {
        "name": "My Little Warung",
        "categories": [
          "restaurant"
        ],
        "lat": 43.2690634,
        "lon": 5.4036717
      },
      {
        "name": "Le Daily",
        "categories": [
          "restaurant"
        ],
        "lat": 43.2562736,
        "lon": 5.3822836
      },
      {
        "name": "Meininger Hotel",
        "categories": [
          "lodging",
          "wifi"
        ],
        "lat": 43.3056563,
        "lon": 5.3710775
      },
      {
        "name": "Gilberte et Marguerite",
        "categories": [
          "restaurant"
        ],
        "lat": 43.3039658,
        "lon": 5.3676494
      },
      {
        "name": "Kyo",
        "categories": [
          "restaurant"
        ],
        "lat": 43.2846643,
        "lon": 5.3848871
      },
      {
        "name": "Grotte Cosquer",
        "categories": [
          "museum"
        ],
        "lat": 43.2972614,
        "lon": 5.3619941
      },
      {
        "name": "Figure",
        "categories": [
          "restaurant"
        ],
        "lat": 43.2831517,
        "lon": 5.3745631
      },
      {
        "name": "Les Jardins du Cloître de Marseille",
        "categories": [
          "restaurant"
        ],
        "lat": 43.335579,
        "lon": 5.4233903
      },
      {
        "name": "Restaurant Quartier Libre",
        "categories": [
          "restaurant"
        ],
        "lat": 43.2935635,
        "lon": 5.3751695
      },
      {
        "name": "PULP - the place to beer",
        "categories": [
          "restaurant"
        ],
        "lat": 43.2924569,
        "lon": 5.3718074
      },
      {
        "name": "La Serenata",
        "categories": [
          "restaurant"
        ],
        "lat": 43.2476859,
        "lon": 5.3747244
      },
      {
        "name": "C'est bon",
        "categories": [
          "vegan",
          "restaurant"
        ],
        "lat": 43.3020259,
        "lon": 5.3978265
      },
      {
        "name": "Robato",
        "categories": [
          "restaurant"
        ],
        "lat": 43.2992134,
        "lon": 5.3844017
      },
      {
        "name": "Latté",
        "categories": [
          "restaurant"
        ],
        "lat": 43.2981824,
        "lon": 5.3659923
      },
      {
        "name": "La ciergerie",
        "categories": [
          "restaurant"
        ],
        "lat": 43.2913014,
        "lon": 5.3850553
      },
      {
        "name": "La nena",
        "categories": [
          "restaurant"
        ],
        "lat": 43.2921397,
        "lon": 5.3834983
      },
      {
        "name": "Oyat",
        "categories": [
          "restaurant"
        ],
        "lat": 43.2927854,
        "lon": 5.3803116
      },
      {
        "name": "Sushi Room",
        "categories": [
          "restaurant"
        ],
        "lat": 43.2947502,
        "lon": 5.3766805
      },
      {
        "name": "Trattoria del Sud da Vicenzo",
        "categories": [
          "restaurant"
        ],
        "lat": 43.2571758,
        "lon": 5.3941103
      },
      {
        "name": "Nul Part Ailleurs",
        "categories": [
          "restaurant"
        ],
        "lat": 43.292968,
        "lon": 5.3704041
      },
      {
        "name": "Nina Sushi",
        "categories": [
          "restaurant"
        ],
        "lat": 43.2784321,
        "lon": 5.3893727
      },
      {
        "name": "La Pépite",
        "categories": [
          "cafe"
        ],
        "lat": 43.2908854,
        "lon": 5.3671807
      },
      {
        "name": "La Pépite",
        "categories": [
          "vegan",
          "cafe"
        ],
        "lat": 43.2978553,
        "lon": 5.3694947
      },
      {
        "name": "Basilic & Co Marseille (République)",
        "categories": [
          "restaurant",
          "accessible"
        ],
        "lat": 43.303186,
        "lon": 5.3683022
      },
      {
        "name": "Jour Euromed",
        "categories": [
          "restaurant"
        ],
        "lat": 43.3106339,
        "lon": 5.3679773
      },
      {
        "name": "Jour Les Docks",
        "categories": [
          "restaurant"
        ],
        "lat": 43.3059765,
        "lon": 5.3662908
      },
      {
        "name": "Pho Vietnam",
        "categories": [
          "restaurant"
        ],
        "lat": 43.3025405,
        "lon": 5.3954553
      },
      {
        "name": "Pizza Sainte Anne",
        "categories": [
          "restaurant"
        ],
        "lat": 43.2564323,
        "lon": 5.393826
      },
      {
        "name": "Zia Concetta",
        "categories": [
          "cafe"
        ],
        "lat": 43.2755863,
        "lon": 5.3598408
      },
      {
        "name": "Yafel",
        "categories": [
          "vegan",
          "restaurant",
          "accessible"
        ],
        "lat": 43.2922114,
        "lon": 5.3829467
      },
      {
        "name": "Pizze & Sfizi",
        "categories": [
          "restaurant"
        ],
        "lat": 43.290637,
        "lon": 5.366574
      },
      {
        "name": "Chez Tamar",
        "categories": [
          "restaurant"
        ],
        "lat": 43.2996161,
        "lon": 5.3664873
      },
      {
        "name": "La cantine solaire du Présage",
        "categories": [
          "restaurant"
        ],
        "lat": 43.3120158,
        "lon": 5.3971016
      },
      {
        "name": "TETRO",
        "categories": [
          "restaurant"
        ],
        "lat": 43.2979277,
        "lon": 5.3713722
      },
      {
        "name": "nhow Marseille Palm Beach",
        "categories": [
          "lodging",
          "wifi",
          "accessible"
        ],
        "lat": 43.268564,
        "lon": 5.369647160126583
      },
      {
        "name": "Restaurant Universitaire Canebière",
        "categories": [
          "restaurant"
        ],
        "lat": 43.29795045,
        "lon": 5.383577313777483
      },
      {
        "name": "Le Ryad",
        "categories": [
          "lodging"
        ],
        "lat": 43.2976296,
        "lon": 5.383458624449315
      },
      {
        "name": "ResidHotel - Vieux port",
        "categories": [
          "lodging",
          "wifi"
        ],
        "lat": 43.296867649999996,
        "lon": 5.372814640769938
      },
      {
        "name": "Musée Regards de Provence",
        "categories": [
          "museum",
          "accessible"
        ],
        "lat": 43.297745199999994,
        "lon": 5.363570257700396
      },
      {
        "name": "Manufactory",
        "categories": [
          "wifi",
          "cafe"
        ],
        "lat": 43.29694405,
        "lon": 5.369182672322898
      },
      {
        "name": "Grand Hotel De La Prefecture",
        "categories": [
          "lodging",
          "wifi"
        ],
        "lat": 43.29131985,
        "lon": 5.381763994475339
      },
      {
        "name": "Radisson Blu Marseille Vieux Port",
        "categories": [
          "lodging",
          "wifi"
        ],
        "lat": 43.292291649999996,
        "lon": 5.367125570941943
      },
      {
        "name": "Le Culti",
        "categories": [
          "restaurant"
        ],
        "lat": 43.280718300000004,
        "lon": 5.368805873073636
      },
      {
        "name": "Le 143",
        "categories": [
          "restaurant"
        ],
        "lat": 43.29072235,
        "lon": 5.367227922372365
      },
      {
        "name": "Bar Restaurant de La Grotte",
        "categories": [
          "restaurant"
        ],
        "lat": 43.21282815,
        "lon": 5.354174748802896
      },
      {
        "name": "La Baie des Singes",
        "categories": [
          "restaurant"
        ],
        "lat": 43.21398695,
        "lon": 5.338040337080367
      },
      {
        "name": "La Riviera",
        "categories": [
          "restaurant"
        ],
        "lat": 43.244448899999995,
        "lon": 5.369601847193213
      },
      {
        "name": "Musée d'art contemporain de Marseille",
        "categories": [
          "museum"
        ],
        "lat": 43.2504507,
        "lon": 5.390176549090016
      },
      {
        "name": "AM (Alexandre Mazzia)",
        "categories": [
          "vegan",
          "restaurant",
          "accessible"
        ],
        "lat": 43.270044,
        "lon": 5.386260414893617
      },
      {
        "name": "LeCesar",
        "categories": [
          "lodging",
          "wifi"
        ],
        "lat": 43.3424262,
        "lon": 5.464757795322194
      },
      {
        "name": "Vieux-Port",
        "categories": [
          "accessible",
          "attraction"
        ],
        "lat": 43.2945804,
        "lon": 5.3692811
      },
      {
        "name": "Mama Shelter",
        "categories": [
          "lodging"
        ],
        "lat": 43.2904536,
        "lon": 5.388863737306332
      },
      {
        "name": "La calanque blanche",
        "categories": [
          "restaurant"
        ],
        "lat": 43.2231525,
        "lon": 5.346631486486483
      },
      {
        "name": "Black Stone",
        "categories": [
          "restaurant"
        ],
        "lat": 43.2654663,
        "lon": 5.398663866822977
      },
      {
        "name": "InterContinental Marseille – Hotel Dieu",
        "categories": [
          "lodging"
        ],
        "lat": 43.2985858,
        "lon": 5.369814771039273
      },
      {
        "name": "L'Escapade",
        "categories": [
          "restaurant"
        ],
        "lat": 43.34575125,
        "lon": 5.435041613192492
      }
    ],
    "city_tags": [
      "museum",
      "food"
    ]
  },
  {
    "country": "France",
    "city": "Lyon",
    "lat": 45.7578137,
    "lon": 4.8320114,
    "pois": [
      {
        "name": "Centre d'Histoire de la Résistance et de la Déportation",
        "categories": [
          "museum",
          "accessible"
        ],
        "lat": 45.7464306,
        "lon": 4.8359519
      },
      {
        "name": "Musée urbain Tony Garnier",
        "categories": [
          "museum"
        ],
        "lat": 45.7335086,
        "lon": 4.8629827
      },
      {
        "name": "Musée de l'Imprimerie et de la communication graphique",
        "categories": [
          "historical",
          "museum",
          "viewpoint"
        ],
        "lat": 45.76427995,
        "lon": 4.8347027871875
      },
      {
        "name": "Musée d'Art Contemporain",
        "categories": [
          "museum",
          "accessible"
        ],
        "lat": 45.7842186,
        "lon": 4.852469829690217
      },
      {
        "name": "Westfield La Part-Dieu",
        "categories": [
          "wifi",
          "accessible"
        ],
        "lat": 45.761328250000005,
        "lon": 4.855903438949914
      },
      {
        "name": "Lugdunum Musée et Théâtres Romains",
        "categories": [
          "museum",
          "accessible"
        ],
        "lat": 45.760301,
        "lon": 4.820729447863249
      },
      {
        "name": "Comptoir Chabert et Fils",
        "categories": [
          "restaurant",
          "accessible"
        ],
        "lat": 45.7567673,
        "lon": 4.8347036
      },
      {
        "name": "Musée des Confluences",
        "categories": [
          "museum",
          "accessible"
        ],
        "lat": 45.732677800000005,
        "lon": 4.818160692638674
      },
      {
        "name": "Le Pailleron",
        "categories": [
          "restaurant"
        ],
        "lat": 45.7795345,
        "lon": 4.8333238
      },
      {
        "name": "Le Bistrot d'Odette",
        "categories": [
          "cafe",
          "accessible"
        ],
        "lat": 45.7595795,
        "lon": 4.846013
      },
      {
        "name": "Musée des Beaux-Arts de Lyon",
        "categories": [
          "museum"
        ],
        "lat": 45.766704700000005,
        "lon": 4.833645109701492
      },
      {
        "name": "La Mère Brazier",
        "categories": [
          "restaurant"
        ],
        "lat": 45.771386,
        "lon": 4.8371707
      },
      {
        "name": "Musées Gadagne",
        "categories": [
          "accessible",
          "historical",
          "museum",
          "viewpoint"
        ],
        "lat": 45.76405015,
        "lon": 4.827286083631041
      },
      {
        "name": "Brasserie Georges",
        "categories": [
          "restaurant",
          "accessible"
        ],
        "lat": 45.7483221,
        "lon": 4.8283428
      },
      {
        "name": "Musée Cinéma & Miniature",
        "categories": [
          "museum"
        ],
        "lat": 45.7618753,
        "lon": 4.8272985
      },
      {
        "name": "Musée de l'automobile Henri Malartre",
        "categories": [
          "museum",
          "accessible"
        ],
        "lat": 45.8449493,
        "lon": 4.8371587
      },
      {
        "name": "Bistrot Jutard",
        "categories": [
          "restaurant",
          "accessible"
        ],
        "lat": 45.7745863,
        "lon": 4.8308752
      },
      {
        "name": "Brasserie L'Est - Bocuse",
        "categories": [
          "restaurant",
          "accessible"
        ],
        "lat": 45.7676679,
        "lon": 4.8597286
      },
      {
        "name": "Takao Takano",
        "categories": [
          "restaurant"
        ],
        "lat": 45.7704766,
        "lon": 4.8426638
      },
      {
        "name": "Miraflores",
        "categories": [
          "restaurant"
        ],
        "lat": 45.7682904,
        "lon": 4.858602
      },
      {
        "name": "Kotopo",
        "categories": [
          "wifi",
          "cafe"
        ],
        "lat": 45.7697266,
        "lon": 4.833306
      },
      {
        "name": "Ninkasi Vaise Industrie",
        "categories": [
          "restaurant"
        ],
        "lat": 45.7882685,
        "lon": 4.8127363
      },
      {
        "name": "Le City",
        "categories": [
          "restaurant"
        ],
        "lat": 45.7632762,
        "lon": 4.8520533
      },
      {
        "name": "La Voie Himalaya",
        "categories": [
          "restaurant",
          "accessible"
        ],
        "lat": 45.7592913,
        "lon": 4.8519313
      },
      {
        "name": "Daniel et Denise Créqui",
        "categories": [
          "restaurant"
        ],
        "lat": 45.7622318,
        "lon": 4.8471989
      },
      {
        "name": "Frite Alors!",
        "categories": [
          "restaurant",
          "accessible"
        ],
        "lat": 45.7679129,
        "lon": 4.8319293
      },
      {
        "name": "Mini World Lyon",
        "categories": [
          "attraction"
        ],
        "lat": 45.7647877,
        "lon": 4.9232356
      },
      {
        "name": "Balthaz'art",
        "categories": [
          "restaurant",
          "accessible"
        ],
        "lat": 45.7732862,
        "lon": 4.8321901
      },
      {
        "name": "Café des Fédérations",
        "categories": [
          "restaurant"
        ],
        "lat": 45.766536,
        "lon": 4.832427
      },
      {
        "name": "Institut Lumière",
        "categories": [
          "museum",
          "accessible"
        ],
        "lat": 45.7450881,
        "lon": 4.8706151
      },
      {
        "name": "Maison des Canuts",
        "categories": [
          "museum"
        ],
        "lat": 45.777106,
        "lon": 4.8336847
      },
      {
        "name": "La Bodeguita Cubana",
        "categories": [
          "restaurant"
        ],
        "lat": 45.7778233,
        "lon": 4.8300469
      },
      {
        "name": "Bernachon Passion",
        "categories": [
          "restaurant"
        ],
        "lat": 45.7689349,
        "lon": 4.8477955
      },
      {
        "name": "Musée des Moulages",
        "categories": [
          "museum"
        ],
        "lat": 45.7515932,
        "lon": 4.8543123
      },
      {
        "name": "Le Jean Moulin",
        "categories": [
          "restaurant"
        ],
        "lat": 45.768377,
        "lon": 4.8479097
      },
      {
        "name": "Nakata",
        "categories": [
          "restaurant"
        ],
        "lat": 45.7578051,
        "lon": 4.858083
      },
      {
        "name": "Laska",
        "categories": [
          "vegan",
          "restaurant"
        ],
        "lat": 45.7687714,
        "lon": 4.8356278
      },
      {
        "name": "Les Enfants du Paradis",
        "categories": [
          "restaurant"
        ],
        "lat": 45.7749702,
        "lon": 4.8239656
      },
      {
        "name": "Musée de l'informatique du centre de calcul de l'IN2P3",
        "categories": [
          "museum"
        ],
        "lat": 45.7826131,
        "lon": 4.8653343
      },
      {
        "name": "La Feria (Lyon)",
        "categories": [
          "restaurant",
          "wifi"
        ],
        "lat": 45.7635317,
        "lon": 4.8289054
      },
      {
        "name": "Wakoo Park",
        "categories": [
          "accessible"
        ],
        "lat": 45.7195112,
        "lon": 4.894704580031641
      },
      {
        "name": "Fourvière Hôtel",
        "categories": [
          "lodging"
        ],
        "lat": 45.7586625,
        "lon": 4.816346088028168
      },
      {
        "name": "Hôtel Bayard",
        "categories": [
          "historical",
          "lodging",
          "wifi"
        ],
        "lat": 45.7562506,
        "lon": 4.8324467449418975
      },
      {
        "name": "Halles de Lyon Paul Bocuse",
        "categories": [
          "accessible"
        ],
        "lat": 45.762831899999995,
        "lon": 4.8505505703189975
      },
      {
        "name": "Grand Hôtel-Dieu",
        "categories": [
          "accessible",
          "historical",
          "viewpoint"
        ],
        "lat": 45.7586965,
        "lon": 4.836614073754669
      },
      {
        "name": "L'Esprit Bistrot",
        "categories": [
          "restaurant"
        ],
        "lat": 45.7410332,
        "lon": 4.8689407
      },
      {
        "name": "Marmocchi",
        "categories": [
          "restaurant"
        ],
        "lat": 45.755566599999995,
        "lon": 4.815816387268036
      },
      {
        "name": "Nouvel institut franco-chinois",
        "categories": [
          "museum"
        ],
        "lat": 45.754632,
        "lon": 4.811131000958964
      },
      {
        "name": "La Rive Gauche",
        "categories": [
          "restaurant"
        ],
        "lat": 45.72421085,
        "lon": 4.823694400211994
      },
      {
        "name": "Restaurant Léon de Lyon",
        "categories": [
          "restaurant"
        ],
        "lat": 45.7660411,
        "lon": 4.8335068
      },
      {
        "name": "Vélcroc",
        "categories": [
          "vegan",
          "cafe"
        ],
        "lat": 45.7641246,
        "lon": 4.841322725603442
      },
      {
        "name": "Classe-Musée",
        "categories": [
          "museum"
        ],
        "lat": 45.72654355,
        "lon": 4.877258314312575
      },
      {
        "name": "Restaurant Rockefeller",
        "categories": [
          "restaurant",
          "accessible"
        ],
        "lat": 45.741301750000005,
        "lon": 4.882689202347953
      },
      {
        "name": "Flam's Lyon",
        "categories": [
          "restaurant"
        ],
        "lat": 45.7628507,
        "lon": 4.8335475
      },
      {
        "name": "Restaurant Pierre Orsi",
        "categories": [
          "restaurant"
        ],
        "lat": 45.7694682,
        "lon": 4.8490984
      },
      {
        "name": "Le Mondrian",
        "categories": [
          "cafe"
        ],
        "lat": 45.7545046,
        "lon": 4.8397562
      },
      {
        "name": "Ninkasi Guillotière",
        "categories": [
          "vegan",
          "restaurant",
          "wifi"
        ],
        "lat": 45.7561747,
        "lon": 4.84108
      },
      {
        "name": "Buffalo Grill",
        "categories": [
          "restaurant",
          "wifi",
          "accessible"
        ],
        "lat": 45.716706,
        "lon": 4.856829005138662
      },
      {
        "name": "Mis P&P",
        "categories": [
          "restaurant"
        ],
        "lat": 45.723748799999996,
        "lon": 4.872702974582938
      },
      {
        "name": "Bon voyage",
        "categories": [
          "restaurant"
        ],
        "lat": 45.76759945,
        "lon": 4.837685570747549
      },
      {
        "name": "Le Taille-Crayon",
        "categories": [
          "restaurant"
        ],
        "lat": 45.7696305,
        "lon": 4.889967329400045
      },
      {
        "name": "Resto’U Jussieu",
        "categories": [
          "restaurant"
        ],
        "lat": 45.780774300000004,
        "lon": 4.876432041421946
      },
      {
        "name": "Restaurant Fond Rose - Bocuse",
        "categories": [
          "restaurant"
        ],
        "lat": 45.791259350000004,
        "lon": 4.8279673378513355
      },
      {
        "name": "Arcadius",
        "categories": [
          "restaurant"
        ],
        "lat": 45.75093345,
        "lon": 4.770356727631579
      },
      {
        "name": "Musée des sapeurs-pompiers de Lyon",
        "categories": [
          "museum"
        ],
        "lat": 45.791253499999996,
        "lon": 4.798525641909759
      },
      {
        "name": "Bistrot du Musée",
        "categories": [
          "restaurant"
        ],
        "lat": 45.8419435,
        "lon": 4.835062915441176
      },
      {
        "name": "Buffalo Grill",
        "categories": [
          "restaurant"
        ],
        "lat": 45.8234255,
        "lon": 4.766875982712766
      },
      {
        "name": "SiSi",
        "categories": [
          "restaurant",
          "accessible"
        ],
        "lat": 45.73945175,
        "lon": 4.956187482755622
      },
      {
        "name": "Musée des Tissus et des Arts décoratifs",
        "categories": [
          "museum"
        ],
        "lat": 45.7533945,
        "lon": 4.831325634804587
      },
      {
        "name": "Monplaisir côté cour",
        "categories": [
          "restaurant",
          "accessible"
        ],
        "lat": 45.74511,
        "lon": 4.8650782
      },
      {
        "name": "Le Penjab",
        "categories": [
          "restaurant"
        ],
        "lat": 45.7611263,
        "lon": 4.8283996
      },
      {
        "name": "Ginette et Marius",
        "categories": [
          "restaurant",
          "accessible"
        ],
        "lat": 45.7350701,
        "lon": 4.8741028
      },
      {
        "name": "Le Paradis du Fruit",
        "categories": [
          "restaurant"
        ],
        "lat": 45.759859,
        "lon": 4.835197
      },
      {
        "name": "Café Français",
        "categories": [
          "restaurant",
          "accessible"
        ],
        "lat": 45.7567112,
        "lon": 4.8342789
      },
      {
        "name": "Indo Bistrô",
        "categories": [
          "restaurant",
          "accessible"
        ],
        "lat": 45.7566918,
        "lon": 4.858595
      },
      {
        "name": "Chez Micheline",
        "categories": [
          "restaurant",
          "accessible"
        ],
        "lat": 45.7504258,
        "lon": 4.8287766
      },
      {
        "name": "Adonys",
        "categories": [
          "vegan",
          "restaurant",
          "accessible"
        ],
        "lat": 45.7583535,
        "lon": 4.8356149
      },
      {
        "name": "Le Bouchon des Carnivores",
        "categories": [
          "restaurant"
        ],
        "lat": 45.7568599,
        "lon": 4.8345751
      },
      {
        "name": "Chez Fyfy Marronniers",
        "categories": [
          "restaurant"
        ],
        "lat": 45.7570658,
        "lon": 4.8346396
      },
      {
        "name": "Atelier d'Yvonne",
        "categories": [
          "restaurant",
          "accessible"
        ],
        "lat": 45.7572243,
        "lon": 4.8346935
      },
      {
        "name": "Chez Tipote",
        "categories": [
          "restaurant"
        ],
        "lat": 45.7575479,
        "lon": 4.834769
      },
      {
        "name": "Pitaya",
        "categories": [
          "restaurant",
          "accessible"
        ],
        "lat": 45.7569251,
        "lon": 4.8347444
      },
      {
        "name": "Noucademie",
        "categories": [
          "restaurant",
          "accessible"
        ],
        "lat": 45.7569836,
        "lon": 4.834761
      },
      {
        "name": "Nishiki Ramen",
        "categories": [
          "vegan",
          "restaurant",
          "accessible"
        ],
        "lat": 45.7570242,
        "lon": 4.8347708
      },
      {
        "name": "Noucademie",
        "categories": [
          "restaurant"
        ],
        "lat": 45.757083,
        "lon": 4.8347998
      },
      {
        "name": "La Mère Jean",
        "categories": [
          "restaurant",
          "accessible"
        ],
        "lat": 45.7572802,
        "lon": 4.8348649
      },
      {
        "name": "Chez Louloutte",
        "categories": [
          "restaurant"
        ],
        "lat": 45.7573369,
        "lon": 4.8348864
      },
      {
        "name": "Chez Mounier",
        "categories": [
          "restaurant",
          "accessible"
        ],
        "lat": 45.757427,
        "lon": 4.8349238
      },
      {
        "name": "Le Pastalicious",
        "categories": [
          "restaurant"
        ],
        "lat": 45.7416916,
        "lon": 4.8620064
      },
      {
        "name": "Bistrot La Varenne",
        "categories": [
          "restaurant"
        ],
        "lat": 45.7532726,
        "lon": 4.8329315
      },
      {
        "name": "Fratelli Parisi",
        "categories": [
          "vegan",
          "restaurant"
        ],
        "lat": 45.7700941,
        "lon": 4.8574412
      },
      {
        "name": "Auberge de l'Île",
        "categories": [
          "restaurant"
        ],
        "lat": 45.797775,
        "lon": 4.8332946
      },
      {
        "name": "Maison Clovis",
        "categories": [
          "restaurant"
        ],
        "lat": 45.7678286,
        "lon": 4.8571543
      },
      {
        "name": "samké",
        "categories": [
          "vegan",
          "restaurant"
        ],
        "lat": 45.7674493,
        "lon": 4.8571062
      },
      {
        "name": "Le Biniou Du 6",
        "categories": [
          "restaurant"
        ],
        "lat": 45.7691134,
        "lon": 4.8557919
      },
      {
        "name": "Le Ch'ti Pot Ney",
        "categories": [
          "restaurant"
        ],
        "lat": 45.7687708,
        "lon": 4.8554612
      },
      {
        "name": "Au Fût Et À Mesure Lyon",
        "categories": [
          "restaurant"
        ],
        "lat": 45.7688022,
        "lon": 4.856825
      },
      {
        "name": "Chez Song",
        "categories": [
          "restaurant"
        ],
        "lat": 45.7665777,
        "lon": 4.8558328
      },
      {
        "name": "Milou",
        "categories": [
          "restaurant"
        ],
        "lat": 45.7668789,
        "lon": 4.855593
      },
      {
        "name": "Milonga Restaurante",
        "categories": [
          "restaurant"
        ],
        "lat": 45.7674017,
        "lon": 4.8556973
      },
      {
        "name": "Le Traquenard",
        "categories": [
          "restaurant"
        ],
        "lat": 45.7593345,
        "lon": 4.8426163
      },
      {
        "name": "Cigale",
        "categories": [
          "restaurant"
        ],
        "lat": 45.7646419,
        "lon": 4.8277995
      },
      {
        "name": "Parc Sergent Blandan",
        "categories": [
          "accessible"
        ],
        "lat": 45.74516905,
        "lon": 4.854594605379603
      },
      {
        "name": "Bistrot Compa",
        "categories": [
          "restaurant"
        ],
        "lat": 45.7507047,
        "lon": 4.8264779
      },
      {
        "name": "Gochi",
        "categories": [
          "restaurant"
        ],
        "lat": 45.7513335,
        "lon": 4.8261861
      },
      {
        "name": "Sampa",
        "categories": [
          "restaurant"
        ],
        "lat": 45.7514533,
        "lon": 4.825817
      },
      {
        "name": "Valpré",
        "categories": [
          "lodging"
        ],
        "lat": 45.776455,
        "lon": 4.791487103273519
      },
      {
        "name": "Pôle de Commerces et de Loisirs Confluence",
        "categories": [
          "accessible"
        ],
        "lat": 45.7410416,
        "lon": 4.816688261126394
      },
      {
        "name": "La Maison",
        "categories": [
          "restaurant"
        ],
        "lat": 45.731344,
        "lon": 4.8229676
      },
      {
        "name": "Magic N' Bar",
        "categories": [
          "restaurant"
        ],
        "lat": 45.7798815,
        "lon": 4.8349865
      },
      {
        "name": "L'Équilibriste",
        "categories": [
          "vegan",
          "restaurant"
        ],
        "lat": 45.7492476,
        "lon": 4.8773375
      },
      {
        "name": "Grand Café des Négociants",
        "categories": [
          "restaurant"
        ],
        "lat": 45.7632864,
        "lon": 4.8345326
      },
      {
        "name": "La Squadra",
        "categories": [
          "restaurant"
        ],
        "lat": 45.7597478,
        "lon": 4.8485228
      },
      {
        "name": "Le bouchon des artistes",
        "categories": [
          "restaurant"
        ],
        "lat": 45.7588755,
        "lon": 4.8486574
      },
      {
        "name": "Frisettes",
        "categories": [
          "restaurant"
        ],
        "lat": 45.7588746,
        "lon": 4.8485064
      },
      {
        "name": "Tokyo",
        "categories": [
          "restaurant"
        ],
        "lat": 45.7599243,
        "lon": 4.8433966
      },
      {
        "name": "La Trattoria",
        "categories": [
          "restaurant"
        ],
        "lat": 45.8255826,
        "lon": 4.8739065
      },
      {
        "name": "Le 14",
        "categories": [
          "restaurant",
          "accessible"
        ],
        "lat": 45.7463647,
        "lon": 4.8636658
      },
      {
        "name": "Paul Bocuse",
        "categories": [
          "restaurant"
        ],
        "lat": 45.8156303,
        "lon": 4.8475323
      },
      {
        "name": "China Exupéry",
        "categories": [
          "restaurant"
        ],
        "lat": 45.7258103,
        "lon": 4.9142846
      },
      {
        "name": "Loutsa",
        "categories": [
          "cafe"
        ],
        "lat": 45.7470407,
        "lon": 4.8376543
      },
      {
        "name": "Starck Bar",
        "categories": [
          "restaurant"
        ],
        "lat": 45.7448494,
        "lon": 4.8257765
      },
      {
        "name": "Les Garçons Bouchers",
        "categories": [
          "restaurant"
        ],
        "lat": 45.763000500000004,
        "lon": 4.8504366999999995
      },
      {
        "name": "La Marquise",
        "categories": [
          "restaurant"
        ],
        "lat": 45.758977,
        "lon": 4.840036
      },
      {
        "name": "La Demeure du Chaos",
        "categories": [
          "museum"
        ],
        "lat": 45.83723945,
        "lon": 4.82629076199262
      },
      {
        "name": "Étienne Coffee & Shop",
        "categories": [
          "cafe",
          "accessible"
        ],
        "lat": 45.7672348,
        "lon": 4.8793492
      },
      {
        "name": "Fratelli Ristorante",
        "categories": [
          "restaurant",
          "accessible"
        ],
        "lat": 45.7379739,
        "lon": 4.8146568
      },
      {
        "name": "Le Tabagon",
        "categories": [
          "restaurant"
        ],
        "lat": 45.7508981,
        "lon": 4.7660762
      },
      {
        "name": "La Fav",
        "categories": [
          "restaurant"
        ],
        "lat": 45.7578558,
        "lon": 4.8118888
      },
      {
        "name": "Le Crouton des Gones",
        "categories": [
          "restaurant"
        ],
        "lat": 45.7123821,
        "lon": 4.7441326
      },
      {
        "name": "Brasserie Midi Minuit",
        "categories": [
          "restaurant"
        ],
        "lat": 45.7426026,
        "lon": 4.8210689
      },
      {
        "name": "Soleil Levant",
        "categories": [
          "restaurant",
          "accessible"
        ],
        "lat": 45.7590074,
        "lon": 4.8521406
      },
      {
        "name": "Le Karachi",
        "categories": [
          "restaurant"
        ],
        "lat": 45.7589209,
        "lon": 4.8521575
      },
      {
        "name": "Japontori",
        "categories": [
          "restaurant"
        ],
        "lat": 45.7641342,
        "lon": 4.8563042
      },
      {
        "name": "Pizzeria da Mario",
        "categories": [
          "restaurant"
        ],
        "lat": 45.7713424,
        "lon": 4.8735436
      },
      {
        "name": "Le Comptoir de Saint-Cyr",
        "categories": [
          "restaurant"
        ],
        "lat": 45.8014905,
        "lon": 4.8199828
      },
      {
        "name": "La Storia nostra",
        "categories": [
          "restaurant"
        ],
        "lat": 45.7731579,
        "lon": 4.8685721
      },
      {
        "name": "La brasserie l'éclat de pierre",
        "categories": [
          "restaurant"
        ],
        "lat": 45.8098738,
        "lon": 4.799286254597337
      }
    ],
    "city_tags": [
      "museum",
      "food"
    ]
  },
  {
    "country": "France",
    "city": "Toulouse",
    "lat": 43.6044622,
    "lon": 1.4442469,
    "pois": [
      {
        "name": "L'envol des pionniers",
        "categories": [
          "historical",
          "museum"
        ],
        "lat": 43.5742708,
        "lon": 1.476943866927027
      },
      {
        "name": "Ensemble conventuel des Jacobins",
        "categories": [
          "historical",
          "museum",
          "viewpoint"
        ],
        "lat": 43.603904549999996,
        "lon": 1.440087432901541
      },
      {
        "name": "Hôtel d'Assézat",
        "categories": [
          "historical",
          "museum"
        ],
        "lat": 43.6003819,
        "lon": 1.4418816720864926
      },
      {
        "name": "Musée des Augustins",
        "categories": [
          "historical",
          "museum",
          "viewpoint"
        ],
        "lat": 43.6009417,
        "lon": 1.4463433320120154
      },
      {
        "name": "Les Abattoirs",
        "categories": [
          "historical",
          "museum",
          "accessible"
        ],
        "lat": 43.60091765,
        "lon": 1.429599
      },
      {
        "name": "Chapelle des Carmélites",
        "categories": [
          "viewpoint",
          "historical",
          "church",
          "attraction"
        ],
        "lat": 43.607587699999996,
        "lon": 1.4432755632154142
      },
      {
        "name": "Musée Georges Labit",
        "categories": [
          "museum",
          "accessible"
        ],
        "lat": 43.591119500000005,
        "lon": 1.4584640355989342
      },
      {
        "name": "Muséum d'Histoire Naturelle",
        "categories": [
          "museum"
        ],
        "lat": 43.5933629,
        "lon": 1.4495293581474087
      },
      {
        "name": "Musée du Vieux-Toulouse",
        "categories": [
          "museum"
        ],
        "lat": 43.6023148,
        "lon": 1.4431296
      },
      {
        "name": "Musée Saint-Raymond",
        "categories": [
          "historical",
          "museum",
          "accessible"
        ],
        "lat": 43.60783095,
        "lon": 1.4411195508590957
      },
      {
        "name": "Halle de La Machine",
        "categories": [
          "museum",
          "accessible"
        ],
        "lat": 43.57275605,
        "lon": 1.4781129537586675
      },
      {
        "name": "Musée des arts précieux Paul-Dupuy",
        "categories": [
          "museum",
          "accessible"
        ],
        "lat": 43.5969961,
        "lon": 1.4469176608344112
      },
      {
        "name": "Le Bibent",
        "categories": [
          "cafe",
          "accessible"
        ],
        "lat": 43.6037802,
        "lon": 1.4434455
      },
      {
        "name": "Musée des Compagnons du Tour de France",
        "categories": [
          "museum"
        ],
        "lat": 43.601708,
        "lon": 1.4431072
      },
      {
        "name": "Cloître des Jacobins",
        "categories": [
          "attraction"
        ],
        "lat": 43.60371965,
        "lon": 1.439863852815177
      },
      {
        "name": "Église des Jacobins",
        "categories": [
          "museum",
          "church",
          "viewpoint"
        ],
        "lat": 43.603479050000004,
        "lon": 1.4402257048874807
      },
      {
        "name": "Le May",
        "categories": [
          "restaurant"
        ],
        "lat": 43.60205765,
        "lon": 1.4427783361935487
      },
      {
        "name": "Barnabé",
        "categories": [
          "restaurant"
        ],
        "lat": 43.57417315,
        "lon": 1.4911557773097868
      },
      {
        "name": "Château d'eau Charles Laganne",
        "categories": [
          "historical",
          "museum",
          "viewpoint"
        ],
        "lat": 43.59869335,
        "lon": 1.4369307601019385
      },
      {
        "name": "La Tantina",
        "categories": [
          "restaurant"
        ],
        "lat": 43.59643995,
        "lon": 1.4410983231183687
      },
      {
        "name": "La Faim des Haricots",
        "categories": [
          "restaurant"
        ],
        "lat": 43.6448869,
        "lon": 1.3835509062206093
      },
      {
        "name": "O' Pavillon",
        "categories": [
          "cafe"
        ],
        "lat": 43.624672000000004,
        "lon": 1.3997146748030587
      },
      {
        "name": "Les Temps Modernes",
        "categories": [
          "restaurant"
        ],
        "lat": 43.6344845,
        "lon": 1.3990563348171698
      },
      {
        "name": "Mongelli",
        "categories": [
          "restaurant"
        ],
        "lat": 43.63428245,
        "lon": 1.398559224496843
      },
      {
        "name": "Les copains d'abord",
        "categories": [
          "restaurant"
        ],
        "lat": 43.601512549999995,
        "lon": 1.458104527871223
      },
      {
        "name": "Château-Mairie de Launaguet",
        "categories": [
          "viewpoint",
          "accessible",
          "attraction"
        ],
        "lat": 43.674030200000004,
        "lon": 1.4580011676598583
      },
      {
        "name": "Pizza Mongelli",
        "categories": [
          "restaurant"
        ],
        "lat": 43.54276645,
        "lon": 1.4779724190641694
      },
      {
        "name": "Pho Mai",
        "categories": [
          "restaurant"
        ],
        "lat": 43.565214749999996,
        "lon": 1.4057670513057747
      },
      {
        "name": "Cockpit",
        "categories": [
          "restaurant"
        ],
        "lat": 43.60883535,
        "lon": 1.379609960714287
      },
      {
        "name": "Pizza Mongelli",
        "categories": [
          "restaurant"
        ],
        "lat": 43.58352945,
        "lon": 1.3468923809294877
      },
      {
        "name": "La Milonga",
        "categories": [
          "restaurant",
          "accessible"
        ],
        "lat": 43.6198629,
        "lon": 1.4362583931235977
      },
      {
        "name": "Ô Jardin Gourmand",
        "categories": [
          "restaurant"
        ],
        "lat": 43.63170745,
        "lon": 1.4318021692239398
      },
      {
        "name": "Le Bus 111",
        "categories": [
          "restaurant"
        ],
        "lat": 43.5783333,
        "lon": 1.4685366908514115
      },
      {
        "name": "Amphithéâtre et Termes Romains de Purpan-Ancely",
        "categories": [
          "viewpoint",
          "historical",
          "attraction"
        ],
        "lat": 43.614918450000005,
        "lon": 1.3977179200755283
      },
      {
        "name": "La Criée",
        "categories": [
          "restaurant"
        ],
        "lat": 43.539156,
        "lon": 1.5126664
      },
      {
        "name": "Chapelle Saint-Joseph de la Grave",
        "categories": [
          "viewpoint",
          "church",
          "attraction"
        ],
        "lat": 43.6008032,
        "lon": 1.4329816002528442
      },
      {
        "name": "Au Pois Gourmand",
        "categories": [
          "restaurant"
        ],
        "lat": 43.609075000000004,
        "lon": 1.4096475424090944
      },
      {
        "name": "Aeroscopia",
        "categories": [
          "museum",
          "accessible"
        ],
        "lat": 43.6602262,
        "lon": 1.3605570092974104
      },
      {
        "name": "Yammy Sushi",
        "categories": [
          "restaurant"
        ],
        "lat": 43.6550405,
        "lon": 1.3689920892857097
      },
      {
        "name": "Le Wallace",
        "categories": [
          "restaurant"
        ],
        "lat": 43.6023692,
        "lon": 1.4473684
      },
      {
        "name": "La Couleur de la Culotte",
        "categories": [
          "restaurant",
          "accessible"
        ],
        "lat": 43.6039496,
        "lon": 1.4352801
      },
      {
        "name": "Viet-An",
        "categories": [
          "restaurant",
          "accessible"
        ],
        "lat": 43.566575799999995,
        "lon": 1.491703041645728
      },
      {
        "name": "Tommy's Diner Café",
        "categories": [
          "restaurant"
        ],
        "lat": 43.5401233,
        "lon": 1.5123055
      },
      {
        "name": "Les 3 Brasseurs",
        "categories": [
          "restaurant"
        ],
        "lat": 43.5409053,
        "lon": 1.5128399
      },
      {
        "name": "Playoff",
        "categories": [
          "restaurant"
        ],
        "lat": 43.5752876,
        "lon": 1.3637782
      },
      {
        "name": "Les Asiatides",
        "categories": [
          "restaurant"
        ],
        "lat": 43.5486662,
        "lon": 1.5123713
      },
      {
        "name": "La Faim des Haricots",
        "categories": [
          "restaurant"
        ],
        "lat": 43.5495431,
        "lon": 1.5112755
      },
      {
        "name": "Flunch",
        "categories": [
          "restaurant"
        ],
        "lat": 43.550307200000006,
        "lon": 1.5073697999999944
      },
      {
        "name": "DiCapo",
        "categories": [
          "restaurant"
        ],
        "lat": 43.550685,
        "lon": 1.506799779481942
      },
      {
        "name": "Le Restaurant",
        "categories": [
          "restaurant"
        ],
        "lat": 43.6008582,
        "lon": 1.4406848
      },
      {
        "name": "La Gouaille",
        "categories": [
          "restaurant"
        ],
        "lat": 43.5984085,
        "lon": 1.4438652
      },
      {
        "name": "Restaurant Émile",
        "categories": [
          "restaurant"
        ],
        "lat": 43.6022479,
        "lon": 1.4472215
      },
      {
        "name": "Le Troquet Garonne",
        "categories": [
          "restaurant"
        ],
        "lat": 43.5845223,
        "lon": 1.4280358
      },
      {
        "name": "Madame Baudruche",
        "categories": [
          "restaurant"
        ],
        "lat": 43.6108086,
        "lon": 1.4370162
      },
      {
        "name": "Pace Salute",
        "categories": [
          "restaurant",
          "accessible"
        ],
        "lat": 43.5817648,
        "lon": 1.3473429
      },
      {
        "name": "Chez Huguette",
        "categories": [
          "restaurant"
        ],
        "lat": 43.6053082,
        "lon": 1.4471994
      },
      {
        "name": "Le Cardinal",
        "categories": [
          "restaurant",
          "accessible"
        ],
        "lat": 43.6049228,
        "lon": 1.4480727
      },
      {
        "name": "Ristorante Del Arte",
        "categories": [
          "restaurant",
          "accessible"
        ],
        "lat": 43.5353372,
        "lon": 1.4090785990612709
      },
      {
        "name": "Des Roses et des Orties",
        "categories": [
          "restaurant",
          "accessible"
        ],
        "lat": 43.6249378,
        "lon": 1.3427239925618695
      },
      {
        "name": "Bistrot de l'Etoile",
        "categories": [
          "restaurant"
        ],
        "lat": 43.6015372,
        "lon": 1.45288
      },
      {
        "name": "AMA",
        "categories": [
          "restaurant"
        ],
        "lat": 43.6013391,
        "lon": 1.4540134
      },
      {
        "name": "La Paniolade",
        "categories": [
          "restaurant"
        ],
        "lat": 43.6198001,
        "lon": 1.4239488
      },
      {
        "name": "Vivants",
        "categories": [
          "restaurant"
        ],
        "lat": 43.6062746,
        "lon": 1.4558049
      },
      {
        "name": "La Réserve",
        "categories": [
          "restaurant"
        ],
        "lat": 43.6021082,
        "lon": 1.4408518
      },
      {
        "name": "Molette",
        "categories": [
          "restaurant"
        ],
        "lat": 43.6022949,
        "lon": 1.4382991
      },
      {
        "name": "Lidotel",
        "categories": [
          "lodging"
        ],
        "lat": 43.5534109,
        "lon": 1.4828701
      },
      {
        "name": "Le Vélo Sentimental",
        "categories": [
          "cafe"
        ],
        "lat": 43.6108171,
        "lon": 1.4523984
      },
      {
        "name": "Prima Circus",
        "categories": [
          "restaurant"
        ],
        "lat": 43.598242,
        "lon": 1.4341987
      },
      {
        "name": "Kashmir",
        "categories": [
          "restaurant"
        ],
        "lat": 43.5988974,
        "lon": 1.4331477
      },
      {
        "name": "L'Accessoire",
        "categories": [
          "restaurant"
        ],
        "lat": 43.596443,
        "lon": 1.4328376
      },
      {
        "name": "Les Tricheurs",
        "categories": [
          "restaurant"
        ],
        "lat": 43.6027157,
        "lon": 1.4373228
      },
      {
        "name": "Mado",
        "categories": [
          "restaurant"
        ],
        "lat": 43.6025661,
        "lon": 1.4376758
      },
      {
        "name": "4 Z'arts",
        "categories": [
          "restaurant"
        ],
        "lat": 43.6017756,
        "lon": 1.439473
      },
      {
        "name": "La Fiancée",
        "categories": [
          "wifi",
          "cafe"
        ],
        "lat": 43.6021628,
        "lon": 1.4411057
      },
      {
        "name": "SushiYaki",
        "categories": [
          "restaurant"
        ],
        "lat": 43.6018041,
        "lon": 1.4421762
      },
      {
        "name": "Prima Lova",
        "categories": [
          "restaurant"
        ],
        "lat": 43.6014641,
        "lon": 1.4421328
      },
      {
        "name": "Valentina",
        "categories": [
          "restaurant"
        ],
        "lat": 43.6017352,
        "lon": 1.440893
      },
      {
        "name": "Long Quan",
        "categories": [
          "restaurant"
        ],
        "lat": 43.6015494,
        "lon": 1.4407998
      },
      {
        "name": "Gueuleton",
        "categories": [
          "restaurant"
        ],
        "lat": 43.6013635,
        "lon": 1.4407281
      },
      {
        "name": "Maison Blanche",
        "categories": [
          "cafe"
        ],
        "lat": 43.6097407,
        "lon": 1.4392253
      },
      {
        "name": "Basso Com'pôtes",
        "categories": [
          "vegan",
          "restaurant",
          "accessible"
        ],
        "lat": 43.5651774,
        "lon": 1.3885337
      },
      {
        "name": "Tourneflam",
        "categories": [
          "restaurant"
        ],
        "lat": 43.5731679,
        "lon": 1.3828753
      },
      {
        "name": "La Côte et l’Arête",
        "categories": [
          "restaurant"
        ],
        "lat": 43.641548,
        "lon": 1.37289
      },
      {
        "name": "Le Cri de la Truffe",
        "categories": [
          "restaurant"
        ],
        "lat": 43.598498,
        "lon": 1.4439349
      },
      {
        "name": "Hippopotamus",
        "categories": [
          "restaurant"
        ],
        "lat": 43.6058692,
        "lon": 1.448176
      },
      {
        "name": "Le Cousture",
        "categories": [
          "lodging",
          "wifi",
          "accessible"
        ],
        "lat": 43.6042707,
        "lon": 1.4505464
      },
      {
        "name": "La Gourmandine",
        "categories": [
          "restaurant"
        ],
        "lat": 43.6005225,
        "lon": 1.4508244
      },
      {
        "name": "Les Jardins de l'Opéra",
        "categories": [
          "restaurant"
        ],
        "lat": 43.6035478,
        "lon": 1.4442457463718381
      },
      {
        "name": "Bimi Sushi & poke ball",
        "categories": [
          "restaurant",
          "accessible"
        ],
        "lat": 43.5688599,
        "lon": 1.4569115
      },
      {
        "name": "Binaire",
        "categories": [
          "restaurant"
        ],
        "lat": 43.5747464,
        "lon": 1.4514821
      },
      {
        "name": "Mucho!",
        "categories": [
          "restaurant"
        ],
        "lat": 43.5998884,
        "lon": 1.441016
      },
      {
        "name": "Brasserie des Beaux-Arts",
        "categories": [
          "restaurant"
        ],
        "lat": 43.5998208,
        "lon": 1.4405189
      },
      {
        "name": "Le Dynastie",
        "categories": [
          "restaurant"
        ],
        "lat": 43.6318797,
        "lon": 1.4862260780279724
      },
      {
        "name": "Le Genty Magre",
        "categories": [
          "restaurant"
        ],
        "lat": 43.6015089,
        "lon": 1.445231
      },
      {
        "name": "Le Ribouldingue",
        "categories": [
          "restaurant"
        ],
        "lat": 43.634532500000006,
        "lon": 1.3993321351174461
      },
      {
        "name": "Terra Tolosa",
        "categories": [
          "restaurant"
        ],
        "lat": 43.5984763,
        "lon": 1.4471869
      },
      {
        "name": "Chez Navarre",
        "categories": [
          "restaurant"
        ],
        "lat": 43.5969167,
        "lon": 1.4474213
      },
      {
        "name": "La Table de Laurent",
        "categories": [
          "restaurant"
        ],
        "lat": 43.5421958,
        "lon": 1.4882581
      },
      {
        "name": "Le Carroussel",
        "categories": [
          "restaurant"
        ],
        "lat": 43.5943789,
        "lon": 1.4999447
      },
      {
        "name": "Le 103",
        "categories": [
          "restaurant",
          "accessible"
        ],
        "lat": 43.5398867,
        "lon": 1.4791084
      },
      {
        "name": "Le Nez Rouge",
        "categories": [
          "restaurant"
        ],
        "lat": 43.5978881,
        "lon": 1.4421515
      },
      {
        "name": "Bago’s",
        "categories": [
          "restaurant"
        ],
        "lat": 43.5956092,
        "lon": 1.4442186
      },
      {
        "name": "Lo Stivale",
        "categories": [
          "restaurant"
        ],
        "lat": 43.5945342,
        "lon": 1.4428044
      },
      {
        "name": "Reflets",
        "categories": [
          "restaurant"
        ],
        "lat": 43.6002659,
        "lon": 1.4352037
      },
      {
        "name": "Café-Restaurant culturel occitan La Topina",
        "categories": [
          "restaurant"
        ],
        "lat": 43.601028,
        "lon": 1.4340281
      },
      {
        "name": "Le Magret",
        "categories": [
          "restaurant"
        ],
        "lat": 43.6065881,
        "lon": 1.4465191
      },
      {
        "name": "L'Impériale",
        "categories": [
          "restaurant"
        ],
        "lat": 43.6061847,
        "lon": 1.4466151
      },
      {
        "name": "La Gourmandine",
        "categories": [
          "restaurant"
        ],
        "lat": 43.6059151,
        "lon": 1.4463028
      },
      {
        "name": "Volfoni",
        "categories": [
          "restaurant"
        ],
        "lat": 43.605201,
        "lon": 1.4469531
      },
      {
        "name": "Brasserie Le Capoul",
        "categories": [
          "restaurant"
        ],
        "lat": 43.6050916,
        "lon": 1.4468081
      },
      {
        "name": "3 Brasseurs",
        "categories": [
          "restaurant",
          "accessible"
        ],
        "lat": 43.65005445,
        "lon": 1.3698753658721388
      },
      {
        "name": "Il Ristorante",
        "categories": [
          "restaurant",
          "accessible"
        ],
        "lat": 43.650158149999996,
        "lon": 1.369464278064933
      },
      {
        "name": "Saveurs",
        "categories": [
          "restaurant",
          "accessible"
        ],
        "lat": 43.6037706,
        "lon": 1.4493474
      },
      {
        "name": "Santosha",
        "categories": [
          "restaurant"
        ],
        "lat": 43.5982513,
        "lon": 1.4442547
      },
      {
        "name": "Miss Fish",
        "categories": [
          "restaurant"
        ],
        "lat": 43.5981939,
        "lon": 1.4442648
      },
      {
        "name": "L'Émulsion",
        "categories": [
          "restaurant"
        ],
        "lat": 43.5974921,
        "lon": 1.4481977
      },
      {
        "name": "Les Mascareignes",
        "categories": [
          "restaurant"
        ],
        "lat": 43.6191487,
        "lon": 1.436876
      },
      {
        "name": "La Table d'Auzeville",
        "categories": [
          "restaurant"
        ],
        "lat": 43.5285195,
        "lon": 1.480824
      },
      {
        "name": "Don Pancho",
        "categories": [
          "restaurant"
        ],
        "lat": 43.6133334,
        "lon": 1.4379729
      },
      {
        "name": "Pastel et Sarrasin",
        "categories": [
          "restaurant"
        ],
        "lat": 43.6073518,
        "lon": 1.442012
      },
      {
        "name": "Restaurant Safran",
        "categories": [
          "restaurant"
        ],
        "lat": 43.5871091,
        "lon": 1.4618377
      },
      {
        "name": "Resto U' Envt",
        "categories": [
          "restaurant"
        ],
        "lat": 43.601984200000004,
        "lon": 1.3841704892992426
      },
      {
        "name": "Adagio Access",
        "categories": [
          "lodging",
          "wifi",
          "accessible"
        ],
        "lat": 43.6147839,
        "lon": 1.4630102
      },
      {
        "name": "Café à la Une",
        "categories": [
          "restaurant"
        ],
        "lat": 43.6168025,
        "lon": 1.4728119
      },
      {
        "name": "Ô Mana",
        "categories": [
          "restaurant",
          "wifi",
          "accessible"
        ],
        "lat": 43.6113905,
        "lon": 1.4535547492040077
      },
      {
        "name": "JEM",
        "categories": [
          "restaurant"
        ],
        "lat": 43.5705002,
        "lon": 1.4206254
      },
      {
        "name": "Le Pretexte",
        "categories": [
          "restaurant"
        ],
        "lat": 43.6014969,
        "lon": 1.4425825
      },
      {
        "name": "La Romantica",
        "categories": [
          "restaurant"
        ],
        "lat": 43.6337162,
        "lon": 1.4330277
      },
      {
        "name": "En pleine nature",
        "categories": [
          "restaurant"
        ],
        "lat": 43.5852455,
        "lon": 1.5292218
      },
      {
        "name": "Signorizza",
        "categories": [
          "vegan",
          "restaurant",
          "accessible"
        ],
        "lat": 43.6065477,
        "lon": 1.351453461308778
      },
      {
        "name": "N88dles",
        "categories": [
          "vegan",
          "restaurant",
          "accessible"
        ],
        "lat": 43.604517,
        "lon": 1.4526157
      },
      {
        "name": "Le Tchin",
        "categories": [
          "restaurant"
        ],
        "lat": 43.6090756,
        "lon": 1.4446239
      },
      {
        "name": "Kopi",
        "categories": [
          "cafe",
          "accessible"
        ],
        "lat": 43.5949468,
        "lon": 1.4439135
      },
      {
        "name": "Asian Saveurs",
        "categories": [
          "restaurant"
        ],
        "lat": 43.6372447,
        "lon": 1.4980255999093675
      },